     2.10           OBSERVATION DATA    G: GPS              RINEX VERSION / TYPE
RTKCONV 2.4.3 b34                       20220108 034825 UTC PGM / RUN BY / DATE 
format: RINEX                                               COMMENT             
                                                            MARKER NAME         
                                                            MARKER NUMBER       
                                                            OBSERVER / AGENCY   
                                                            REC # / TYPE / VERS 
                                                            ANT # / TYPE        
        0.0000        0.0000        0.0000                  APPROX POSITION XYZ 
        0.0000        0.0000        0.0000                  ANTENNA: DELTA H/E/N
     1     1                                                WAVELENGTH FACT L1/2
     5    C1    L1    P2    L2    C2                        # / TYPES OF OBSERV 
  2022    01    08    01    00   00.0000000     GPS         TIME OF FIRST OBS   
  2022    01    08    01    59   59.0000000     GPS         TIME OF LAST OBS    
                                                            END OF HEADER       
 22 01 08 01 00 00.0000000  0 12G01G06G07G10G13G14G15G17G19G21G24G30
  22067015.773   115962935.3881   22067024.277    90360803.5881   22067023.605  
  25437914.688   133677143.8531                  104164036.5731   25437921.785  
  25054693.852   131663380.2891   25054700.613   102594837.6601   25054700.148  
  25798338.234   135571296.3691   25798345.043   105639916.2271   25798345.043  
  22621119.984   118874979.9321   22621125.684    92629769.3771                 
  20619853.789   108357963.7381   20619859.320    84434938.8741   20619859.055  
  23269089.797   122279802.2661   23269094.836    95283091.3491   23269095.172  
  20461181.148   107524272.9431   20461186.016    83785198.4231   20461185.871  
  21352198.938   112206601.3051   21352202.871    87433763.8191                 
  24231369.375   127336653.9201   24231374.313    99223453.5071                 
  23267102.383   122269380.9791   23267110.551    95274968.0061   23267110.813  
  22966301.297   120688624.4711   22966309.012    94043254.6041   22966308.984  
 22 01 08 01 00 01.0000000  0 12G01G06G07G10G13G14G15G17G19G21G24G30
  22067062.305   115963180.307    22067071.004    90360994.434    22067070.172  
  25437191.797   133673347.892                   104161078.680    25437199.434  
  25055413.570   131667160.061    25055419.926   102597782.938    25055419.805  
  25798516.836   135572231.795    25798522.961   105640645.121    25798523.063  
  22621640.297   118877714.199    22621646.461    92631899.980                  
  20620100.641   108359261.650    20620106.219    84435950.233    20620105.961  
  23269448.672   122281689.960    23269453.820    95284562.283    23269454.188  
  20461065.094   107523665.051    20461070.625    83784724.741    20461070.453  
  21351678.586   112203866.440    21351682.207    87431632.753                  
  24231794.008   127338886.413    24231799.012    99225193.097                  
  23266493.594   122266185.544    23266502.773    95272478.062    23266502.793  
  22966945.617   120692011.921    22966953.703    94045894.176    22966953.582  
 22 01 08 01 00 02.0000000  0 12G01G06G07G10G13G14G15G17G19G21G24G30
  22067109.320   115963425.927    22067118.059    90361185.829    22067117.125  
  25436469.125   133669551.845                   104158120.728    25436477.426  
  25056133.195   131670939.953    25056139.043   102600728.309    25056138.680  
  25798694.758   135573167.754    25798701.250   105641374.436    25798701.063  
  22622160.797   118880448.885    22622166.508    92634030.902                  
  20620347.500   108360559.903    20620353.402    84436961.855    20620353.082  
  23269808.141   122283578.162    23269813.676    95286033.610    23269814.219  
  20460949.836   107523057.692    20460954.758    83784251.471    20460954.707  
  21351158.273   112201131.992    21351161.465    87429502.018                  
  24232218.688   127341119.372    24232223.898    99226933.047                  
  23265885.930   122262990.381    23265894.215    95269988.320    23265894.289  
  22967590.508   120695399.615    22967597.844    94048533.938    22967598.066  
 22 01 08 01 00 03.0000000  0 12G01G06G07G10G13G14G15G17G19G21G24G30
  22067155.445   115963672.336    22067164.555    90361377.837    22067163.559  
  25435746.242   133665755.714                   104155162.705    25435755.270  
  25056852.406   131674719.918    25056858.793   102603673.742    25056858.383  
  25798872.633   135574104.284    25798879.746   105642104.206    25798879.336  
  22622681.328   118883184.015    22622687.121    92636162.173                  
  20620595.000   108361858.594    20620600.320    84437973.827    20620600.000  
  23270167.273   122285466.899    23270172.738    95287505.355    23270173.000  
  20460834.211   107522450.897    20460839.168    83783778.647    20460838.840  
  21350637.867   112198398.012    21350641.590    87427371.641                  
  24232643.898   127343352.689    24232648.781    99228673.295                  
  23265277.750   122259795.563    23265286.543    95267498.852    23265286.863  
  22968235.688   120698787.631    22968243.176    94051173.949    22968243.320  
 22 01 08 01 00 04.0000000  0 12G01G06G07G10G13G14G15G17G19G21G24G30
  22067202.773   115963919.495    22067211.891    90361570.429    22067211.109  
  25435024.422   133661959.510                   104152204.633    25435033.008  
  25057572.164   131678499.920    25057578.063   102606619.205    25057577.879  
  25799050.195   135575041.351    25799057.980   105642834.386    25799057.211  
  22623202.234   118885919.515    22623207.875    92638293.728                  
  20620841.766   108363157.626    20620847.617    84438986.058    20620847.566  
  23270527.055   122287356.120    23270532.832    95288977.470    23270533.137  
  20460718.734   107521844.631    20460723.637    83783306.230    20460723.387  
  21350117.383   112195664.469    21350121.609    87425241.611                  
  24233069.523   127345586.495    24233073.652    99230413.932                  
  23264669.375   122256601.014    23264678.633    95265009.589    23264678.719  
  22968879.906   120702175.852    22968887.773    94053814.118    22968887.879  
 22 01 08 01 00 05.0000000  0 12G01G06G07G10G13G14G15G17G19G21G24G30
  22067249.992   115964167.449    22067258.895    90361763.637    22067258.070  
  25434302.633   133658163.220                   104149246.493    25434309.973  
  25058290.859   131682280.032    25058297.387   102609564.753    25058297.258  
  25799228.969   135575978.997    25799236.703   105643565.008    25799236.180  
  22623722.617   118888655.510    22623728.125    92640425.677                  
  20621089.172   108364457.079    20621094.941    84439998.616    20621094.848  
  23270885.961   122289245.936    23270892.219    95290450.052    23270892.172  
  20460603.664   107521238.956    20460609.195    83782834.276    20460609.027  
  21349597.484   112192931.414    21349601.625    87423111.960                  
  24233494.930   127347820.731    24233498.980    99232154.902                  
  23264061.805   122253406.809    23264070.633    95262520.598    23264070.730  
  22969525.148   120705564.452    22969532.949    94056454.586    22969532.754  
 22 01 08 01 00 06.0000000  0 12G01G06G07G10G13G14G15G17G19G21G24G30
  22067297.922   115964416.143    22067306.195    90361957.427    22067305.664  
  25433580.055   133654366.814                   104146288.264    25433587.848  
  25059009.938   131686060.205    25059016.082   102612510.350    25059015.809  
  25799407.461   135576917.198    25799415.484   105644296.069    25799414.656  
  22624243.281   118891391.899    22624248.750    92642557.936                  
  20621336.516   108365756.916    20621342.453    84441011.481    20621342.320  
  23271245.977   122291136.226    23271251.504    95291923.006    23271251.352  
  20460488.359   107520633.791    20460493.898    83782362.717    20460493.738  
  21349077.922   112190198.788    21349081.242    87420982.640                  
  24233919.984   127350055.403    24233924.340    99233896.194                  
  23263454.164   122250212.892    23263463.055    95260031.843    23263463.051  
  22970169.992   120708953.253    22970177.602    94059095.210    22970177.430  
 22 01 08 01 00 07.0000000  0 12G01G06G07G10G13G14G15G17G19G21G24G30
  22067344.664   115964665.649    22067353.594    90362151.847    22067352.746  
  25432857.578   133650570.397                   104143330.024    25432865.863  
  25059729.961   131689840.536    25059735.719   102615456.054    25059734.887  
  25799586.992   135577855.975    25799594.094   105645027.586    25799593.426  
  22624764.250   118894128.767    22624769.637    92644690.563                  
  20621583.617   108367057.161    20621589.980    84442024.655    20621589.691  
  23271605.570   122293027.113    23271611.852    95293396.423    23271611.676  
  20460373.391   107520029.251    20460378.648    83781891.654    20460378.766  
  21348557.719   112187466.674    21348561.434    87418853.719                  
  24234345.703   127352290.533    24234349.332    99235637.855                  
  23262846.578   122247019.341    23262855.457    95257543.362    23262855.262  
  22970815.063   120712342.386    22970822.406    94061736.090    22970822.508  
 22 01 08 01 00 08.0000000  0 12G01G06G07G10G13G14G15G17G19G21G24G30
  22067392.461   115964915.857    22067401.438    90362346.817    22067400.594  
  25432134.891   133646773.817                   104140371.663    25432142.961  
  25060449.492   131693620.875    25060455.289   102618401.766    25060454.324  
  25799765.211   135578795.262    25799772.313   105645759.508    25799771.680  
  22625285.164   118896865.989    22625290.398    92646823.454                  
  20621831.461   108368357.763    20621837.086    84443038.112    20621836.773  
  23271965.648   122294918.441    23271971.398    95294870.184    23271971.555  
  20460258.336   107519425.188    20460263.695    83781420.956    20460263.496  
  21348037.711   112184734.946    21348041.645    87416725.108                  
  24234770.836   127354526.050    24234775.184    99237379.823                  
  23262239.195   122243826.010    23262247.699    95255055.057    23262247.523  
  22971460.070   120715731.766    22971467.551    94064377.163    22971467.594  
 22 01 08 01 00 09.0000000  0 12G01G06G07G10G13G14G15G17G19G21G24G30
  22067440.266   115965166.838    22067449.277    90362542.384    22067448.684  
  25431412.180   133642977.160                   104137413.238    25431420.379  
  25061168.641   131697401.307    25061174.934   102621347.550    25061174.035  
  25799943.742   135579735.147    25799951.461   105646491.890    25799950.859  
  22625806.211   118899603.705    22625811.402    92648956.730                  
  20622079.125   108369658.769    20622084.664    84444051.886    20622084.398  
  23272325.555   122296810.348    23272331.625    95296344.396    23272331.625  
  20460144.125   107518821.699    20460148.926    83780950.702    20460148.879  
  21347518.266   112182003.699    21347522.133    87414596.861                  
  24235196.547   127356762.020    24235200.895    99239122.139                  
  23261631.336   122240633.088    23261640.223    95252567.063    23261639.836  
  22972104.641   120719121.461    22972112.281    94067018.484    22972112.332  
 22 01 08 01 00 10.0000000  0 12G01G06G07G10G13G14G15G17G19G21G24G30
  22067487.953   115965418.583    22067496.535    90362738.547    22067495.793  
  25430689.508   133639180.444                   104134454.770    25430697.508  
  25061887.578   131701181.815    25061894.023   102624293.403    25061893.383  
  25800123.094   135580675.579    25800130.859   105647224.693    25800130.316  
  22626327.328   118902341.809    22626332.336    92651090.317                  
  20622326.758   108370960.177    20622332.223    84445065.968    20622332.129  
  23272685.898   122298702.782    23272691.828    95297819.017    23272691.848  
  20460029.039   107518218.777    20460034.223    83780480.890    20460034.176  
  21346998.609   112179272.919    21347002.352    87412468.981                  
  24235621.742   127358998.422    24235626.332    99240864.794                  
  23261023.664   122237440.412    23261032.527    95250079.262    23261032.402  
  22972749.391   120722511.413    22972757.348    94069660.005    22972757.543  
 22 01 08 01 00 11.0000000  0 12G01G06G07G10G13G14G15G17G19G21G24G30
  22067536.445   115965671.103    22067545.172    90362935.320    22067544.449  
  25429966.945   133635383.563                   104131496.175    25429975.039  
  25062607.883   131704962.339    25062613.531   102627239.267    25062613.008  
  25800301.508   135581616.532    25800310.188   105647957.901    25800310.031  
  22626847.766   118905080.334    22626853.418    92653224.233                  
  20622574.484   108372261.933    20622580.316    84446080.324    20622580.262  
  23273046.273   122300595.701    23273051.930    95299294.021    23273051.668  
  20459914.438   107517616.352    20459919.266    83780011.471    20459919.363  
  21346479.453   112176542.546    21346482.484    87410341.426                  
  24236047.234   127361235.235    24236051.555    99242607.774                  
  23260416.305   122234248.039    23260424.938    95247591.697    23260424.355  
  22973394.773   120725901.623    22973402.473    94072301.724    22973402.734  
 22 01 08 01 00 12.0000000  0 12G01G06G07G10G13G14G15G17G19G21G24G30
  22067584.328   115965924.359    22067592.820    90363132.663    22067592.410  
  25429244.711   133631586.635                   104128537.535    25429252.164  
  25063326.836   131708743.030    25063332.883   102630185.255    25063332.496  
  25800480.539   135582558.104    25800489.016   105648691.588    25800488.875  
  22627369.039   118907819.315    22627374.625    92655358.508                  
  20622822.219   108373564.105    20622828.227    84447095.002    20622827.840  
  23273406.086   122302489.170    23273412.773    95300769.451    23273412.652  
  20459799.891   107517014.528    20459805.066    83779542.514    20459804.973  
  21345959.773   112173812.673    21345963.164    87408214.247                  
  24236473.328   127363472.506    24236477.648    99244351.095                  
  23259809.078   122231055.996    23259817.805    95245104.391    23259817.277  
  22974039.992   120729292.139    22974047.707    94074943.690    22974048.039  
 22 01 08 01 00 13.0000000  0 12G01G06G07G10G13G14G15G17G19G21G24G30
  22067633.305   115966178.418    22067641.422    90363330.632    22067640.984  
  25428522.055   133627789.699                   104125578.881    25428529.551  
  25064046.484   131712523.752    25064052.434   102633131.273    25064051.953  
  25800659.906   135583500.197    25800668.934   105649425.680    25800669.020  
  22627890.930   118910558.701    22627895.730    92657493.094                  
  20623070.359   108374866.668    20623076.051    84448109.993    20623075.492  
  23273766.742   122304383.177    23273772.789    95302245.299    23273772.781  
  20459685.477   107516413.259    20459690.453    83779073.999    20459690.484  
  21345440.047   112171083.234    21345443.906    87406087.409                  
  24236898.930   127365710.228    24236903.813    99246094.771                  
  23259201.664   122227864.290    23259210.547    95242617.352    23259209.656  
  22974685.336   120732682.955    22974693.234    94077585.880    22974693.590  
 22 01 08 01 00 14.0000000  0 12G01G06G07G10G13G14G15G17G19G21G24G30
  22067681.078   115966433.199    22067689.758    90363529.163    22067689.676  
  25427799.789   133623992.593                   104122620.097    25427807.020  
  25064765.773   131716304.588    25064771.957   102636077.385    25064771.168  
  25800840.016   135584442.806    25800848.258   105650160.182    25800848.250  
  22628412.406   118913298.529    22628417.500    92659628.033                  
  20623318.047   108376169.612    20623323.926    84449125.271    20623323.672  
  23274127.047   122306277.698    23274133.813    95303721.549    23274133.934  
  20459571.359   107515812.529    20459576.203    83778605.897    20459576.035  
  21344921.016   112168354.267    21344924.934    87403960.942                  
  24237325.148   127367948.345    24237329.559    99247838.776                  
  23258594.461   122224672.867    23258603.266    95240130.527    23258602.090  
  22975329.992   120736074.011    22975338.270    94080228.263    22975338.707  
 22 01 08 01 00 15.0000000  0 12G01G06G07G10G13G14G15G17G19G21G24G30
  22067730.375   115966688.780    22067738.535    90363728.317    22067737.977  
  25427076.391   133620195.399                   104119661.244    25427084.680  
  25065485.258   131720085.451    25065491.195   102639023.510    25065490.176  
  25801019.555   135585386.027    25801027.820   105650895.161    25801027.906  
  22628933.656   118916038.810    22628939.188    92661763.308                  
  20623566.664   108377472.959    20623571.945    84450140.865    20623571.754  
  23274487.836   122308172.748    23274493.754    95305198.214    23274493.867  
  20459457.344   107515212.359    20459462.199    83778138.229    20459462.223  
  21344401.789   112165625.740    21344405.605    87401834.820                  
  24237750.633   127370186.967    24237755.707    99249583.159                  
  23257987.000   122221481.757    23257996.012    95237643.944    23257995.289  
  22975975.969   120739465.376    22975983.492    94082870.887    22975983.930  
 22 01 08 01 00 16.0000000  0 12G01G06G07G10G13G14G15G17G19G21G24G30
  22067778.938   115966945.074    22067787.152    90363928.026    22067786.574  
  25426353.445   133616398.110                   104116702.320    25426361.621  
  25066204.266   131723866.413    25066210.652   102641969.717    25066209.742  
  25801198.813   135586329.798    25801207.285   105651630.571    25801207.105  
  22629455.047   118918779.467    22629460.523    92663898.886                  
  20623814.555   108378776.658    20623819.734    84451156.736    20623819.445  
  23274848.359   122310068.302    23274854.770    95306675.272    23274854.859  
  20459343.016   107514612.717    20459347.801    83777670.981    20459347.574  
  21343882.375   112162897.668    21343886.309    87399709.047                  
  24238177.750   127372425.963    24238181.238    99251327.822                  
  23257379.789   122218290.954    23257388.746    95235157.606    23257388.152  
  22976620.938   120742856.997    22976629.094    94085513.712    22976629.250  
 22 01 08 01 00 17.0000000  0 12G01G06G07G10G13G14G15G17G19G21G24G30
  22067828.008   115967202.187    22067836.680    90364128.373    22067835.996  
  25425631.109   133612600.792                   104113743.374    25425638.934  
  25066924.063   131727647.459    25066929.867   102644915.986    25066928.996  
  25801378.328   135587274.142    25801386.773   105652366.433    25801386.504  
  22629976.367   118921520.628    22629981.918    92666034.850                  
  20624062.617   108380080.798    20624068.293    84452172.946    20624067.980  
  23275208.641   122311964.396    23275215.664    95308152.750    23275215.645  
  20459228.945   107514013.667    20459233.852    83777204.185    20459233.477  
  21343363.109   112160170.068    21343367.043    87397583.647                  
  24238602.438   127374665.439    24238607.770    99253072.847                  
  23256772.289   122215100.458    23256781.387    95232671.505    23256780.855  
  22977266.430   120746248.902    22977274.547    94088156.752    22977274.582  
 22 01 08 01 00 18.0000000  0 12G01G06G07G10G13G14G15G17G19G21G24G30
  22067876.477   115967460.040    22067885.035    90364329.294    22067884.551  
  25424908.219   133608803.312                   104110784.305    25424916.508  
  25067642.914   131731428.572    25067649.758   102647862.309    25067648.586  
  25801558.734   135588219.009    25801566.699   105653102.701    25801566.352  
  22630498.484   118924262.138    22630504.184    92668171.090                  
  20624310.844   108381385.288    20624316.410    84453189.439    20624316.348  
  23275569.797   122313861.020    23275576.559    95309630.639    23275576.168  
  20459114.945   107513415.138    20459119.793    83776737.802    20459119.813  
  21342844.375   112157442.899    21342848.328    87395458.586                  
  24239028.828   127376905.283    24239033.918    99254818.217                  
  23256165.727   122211910.293    23256174.523    95230185.666    23256174.074  
  22977912.578   120749641.110    22977919.973    94090800.030    22977919.852  
 22 01 08 01 00 19.0000000  0 12G01G06G07G10G13G14G15G17G19G21G24G30
  22067926.203   115967718.641    22067934.469    90364530.804    22067933.879  
  25424185.625   133605005.803                   104107825.213    25424193.934  
  25068363.117   131735209.745    25068368.973   102650808.677    25068368.426  
  25801738.781   135589164.445    25801746.648   105653839.410    25801746.227  
  22631020.234   118927004.094    22631025.816    92670307.672                  
  20624558.945   108382690.159    20624564.410    84454206.220    20624564.180  
  23275930.930   122315758.145    23275937.066    95311108.917    23275936.785  
  20459001.195   107512817.146    20459006.016    83776271.829    20459006.063  
  21342325.648   112154716.194    21342329.199    87393333.882                  
  24239455.266   127379145.624    24239460.105    99256563.941                  
  23255558.383   122208720.427    23255567.355    95227700.060    23255567.004  
  22978557.289   120753033.563    22978565.863    94093443.502    22978565.777  
 22 01 08 01 00 20.0000000  0 12G01G06G07G10G13G14G15G17G19G21G24G30
  22067975.703   115967978.005    22067983.676    90364732.907    22067983.434  
  25423462.563   133601208.216                   104104866.052    25423471.250  
  25069083.367   131738991.013    25069088.859   102653755.110    25069088.270  
  25801918.141   135590110.429    25801926.801   105654576.543    25801926.004  
  22631542.000   118929746.496    22631547.789    92672444.616                  
  20624807.516   108383995.446    20624813.688    84455223.323    20624813.188  
  23276292.344   122317655.836    23276298.383    95312587.637    23276298.395  
  20458887.820   107512219.756    20458892.750    83775806.334    20458892.578  
  21341806.641   112151989.963    21341810.176    87391209.545                  
  24239881.570   127381386.431    24239886.777    99258310.014                  
  23254951.461   122205530.877    23254960.215    95225214.699    23254960.051  
  22979202.992   120756426.298    22979211.094    94096087.185    22979210.953  
 22 01 08 01 00 21.0000000  0 12G01G06G07G10G13G14G15G17G19G21G24G30
  22068024.805   115968238.136    22068033.461    90364935.608    22068032.934  
  25422739.813   133597410.575                   104101906.844    25422748.918  
  25069801.969   131742772.331    25069808.141   102656701.595    25069807.473  
  25802098.953   135591056.955    25802107.063   105655314.106    25802106.223  
  22632063.797   118932489.283    22632069.629    92674581.852                  
  20625056.000   108385301.103    20625061.805    84456240.713    20625061.387  
  23276653.438   122319553.975    23276659.441    95314066.703    23276659.863  
  20458774.039   107511622.871    20458778.813    83775341.231    20458778.734  
  21341287.813   112149264.164    21341291.746    87389085.546                  
  24240308.586   127383627.543    24240312.707    99260056.323                  
  23254344.797   122202341.633    23254353.523    95222729.576    23254353.457  
  22979849.063   120759819.361    22979856.867    94098731.131    22979856.816  
 22 01 08 01 00 22.0000000  0 12G01G06G07G10G13G14G15G17G19G21G24G30
  22068074.047   115968499.010    22068082.848    90365138.884    22068082.254  
  25422017.352   133593612.743                   104098947.487    25422026.043  
  25070521.641   131746553.695    25070527.816   102659648.116    25070527.469  
  25802277.664   135592004.084    25802287.676   105656052.135    25802286.574  
  22632586.094   118935232.540    22632591.457    92676719.454                  
  20625304.297   108386607.146    20625309.930    84457258.414    20625309.758  
  23277014.305   122321452.731    23277020.672    95315546.250    23277020.879  
  20458660.531   107511026.559    20458665.215    83774876.572    20458664.902  
  21340768.836   112146538.832    21340772.992    87386961.917                  
  24240735.328   127385869.197    24240740.016    99261803.040                  
  23253738.336   122199152.697    23253746.781    95220244.688    23253746.590  
  22980494.711   120763212.637    22980502.664    94101375.240    22980502.559  
 22 01 08 01 00 23.0000000  0 12G01G06G07G10G13G14G15G17G19G21G24G30
  22068124.422   115968760.693    22068132.254    90365342.794    22068131.660  
  25421295.313   133589814.870                   104095988.099    25421303.395  
  25071240.438   131750335.244    25071247.406   102662594.772    25071246.930  
  25802458.336   135592951.743    25802468.105   105656790.573    25802467.137  
  22633107.969   118937976.234    22633113.754    92678857.394                  
  20625552.883   108387913.616    20625558.863    84458276.439    20625558.516  
  23277376.383   122323351.985    23277382.414    95317026.187    23277382.734  
  20458547.008   107510430.836    20458552.055    83774412.371    20458551.867  
  21340251.008   112143813.985    21340255.086    87384838.659                  
  24241162.156   127388111.273    24241166.418    99263550.134                  
  23253130.703   122195964.106    23253139.785    95217760.070    23253139.426  
  22981140.398   120766606.276    22981148.523    94104019.639    22981148.645  
 22 01 08 01 00 24.0000000  0 12G01G06G07G10G13G14G15G17G19G21G24G30
  22068174.641   115969023.049    22068182.797    90365547.231    22068182.270  
  25420571.570   133586016.910                   104093028.644    25420581.207  
  25071960.852   131754116.718    25071966.891   102665541.381    25071966.805  
  25802638.578   135593899.963    25802648.496   105657529.447    25802647.223  
  22633630.070   118940720.306    22633635.516    92680995.629                  
  20625801.211   108389220.398    20625807.398    84459294.713    20625807.152  
  23277737.555   122325251.687    23277744.133    95318506.470    23277744.297  
  20458433.813   107509835.584    20458438.813    83773948.541    20458438.727  
  21339732.039   112141089.518    21339735.969    87382715.693                  
  24241588.164   127390353.731    24241593.199    99265297.525                  
  23252524.758   122192775.745    23252533.102    95215275.627    23252532.941  
  22981786.203   120770000.101    22981794.242    94106664.174    22981794.141  
 22 01 08 01 00 25.0000000  0 12G01G06G07G10G13G14G15G17G19G21G24G30
  22068223.820   115969286.281    22068232.754    90365752.350    22068232.191  
  25419848.820   133582218.907                   104090069.162    25419858.004  
  25072681.172   131757898.404    25072686.359   102668488.149    25072686.363  
  25802819.258   135594848.772    25802829.176   105658268.778    25802827.762  
  22634152.461   118943464.870    22634157.871    92683134.256                  
  20626050.438   108390527.674    20626056.277    84460313.372    20626056.133  
  23278099.219   122327152.036    23278105.484    95319987.261    23278105.859  
  20458320.508   107509240.972    20458325.340    83773485.204    20458325.113  
  21339214.586   112138365.592    21339218.457    87380593.157                  
  24242014.664   127392596.673    24242019.664    99267045.256                  
  23251917.797   122189587.828    23251926.324    95212791.537    23251926.379  
  22982432.281   120773394.318    22982439.977    94109309.015    22982440.117  
 22 01 08 01 00 26.0000000  0 12G01G06G07G10G13G14G15G17G19G21G24G30
  22068274.422   115969550.201    22068283.090    90365958.001    22068282.258  
  25419126.117   133578420.771                   104087109.581    25419135.855  
  25073399.977   131761680.112    25073406.320   102671434.940    25073406.164  
  25802999.039   135595798.052    25803009.832   105659008.466    25803008.148  
  22634675.406   118946209.819    22634680.637    92685273.186                  
  20626299.125   108391835.282    20626304.738    84461332.286    20626304.531  
  23278460.586   122329052.833    23278467.559    95321468.401    23278467.910  
  20458207.539   107508646.872    20458212.438    83773022.272    20458212.301  
  21338695.289   112135642.048    21338699.680    87378470.913                  
  24242442.000   127394840.004    24242446.480    99268793.331                  
  23251311.148   122186400.107    23251320.023    95210307.601    23251320.195  
  22983078.453   120776788.718    22983086.152    94111954.001    22983086.379  
 22 01 08 01 00 27.0000000  0 12G01G06G07G10G13G14G15G17G19G21G24G30
  22068324.695   115969814.945    22068333.332    90366164.293    22068332.605  
  25418403.477   133574622.555                   104084149.938    25418413.141  
  25074119.586   131765461.919    25074125.719   102674381.800    25074125.438  
  25803180.484   135596748.018    25803190.461   105659748.694    25803189.211  
  22635197.313   118948955.211    22635202.770    92687412.460                  
  20626547.984   108393143.290    20626553.879    84462351.512    20626553.414  
  23278822.703   122330954.197    23278829.148    95322949.981    23278829.305  
  20458094.461   107508053.336    20458099.449    83772559.773    20458099.297  
  21338178.016   112132919.015    21338181.727    87376349.072                  
  24242869.461   127397083.865    24242873.785    99270541.794                  
  23250704.734   122183212.744    23250712.965    95207823.946    23250713.434  
  22983724.727   120780183.447    22983732.188    94114599.243    22983732.352  
 22 01 08 01 00 28.0000000  0 12G01G06G07G10G13G14G15G17G19G21G24G30
  22068375.352   115970080.371    22068383.988    90366371.120    22068383.410  
  25417681.867   133570824.191                   104081190.181    25417689.770  
  25074839.570   131769243.751    25074845.508   102677328.674    25074845.262  
  25803361.555   135597698.408    25803371.520   105660489.253    25803370.531  
  22635719.914   118951700.974    22635725.535    92689552.008                  
  20626797.523   108394451.622    20626802.797    84463370.993    20626802.379  
  23279184.547   122332856.037    23279190.836    95324431.923    23279191.063  
  20457982.031   107507460.303    20457986.742    83772097.668    20457986.406  
  21337659.711   112130196.395    21337663.551    87374227.550                  
  24243296.422   127399328.072    24243300.520    99272290.500                  
  23250098.297   122180025.647    23250106.332    95205340.496    23250106.867  
  22984370.477   120783578.387    22984377.969    94117244.654    22984378.102  
 22 01 08 01 00 29.0000000  0 12G01G06G07G10G13G14G15G17G19G21G24G30
  22068425.813   115970346.618    22068434.688    90366578.582    22068433.973  
  25416958.211   133567025.837                   104078230.428    25416967.383  
  25075558.688   131773025.685    25075564.949   102680275.630    25075564.668  
  25803542.422   135598649.391    25803552.059   105661230.277    25803550.977  
  22636242.102   118954447.220    22636247.727    92691691.928                  
  20627046.594   108395760.429    20627051.820    84464390.844    20627051.902  
  23279546.211   122334758.437    23279553.250    95325914.315    23279553.203  
  20457869.180   107506867.880    20457874.102    83771636.040    20457873.902  
  21337141.727   112127474.253    21337145.418    87372106.402                  
  24243723.672   127401572.741    24243727.613    99274039.597                  
  23249491.586   122176838.926    23249500.023    95202857.337    23249500.270  
  22985016.875   120786973.670    22985024.211    94119890.328    22985024.570  
 22 01 08 01 00 30.0000000  0 12G01G06G07G10G13G14G15G17G19G21G24G30
  22068476.508   115970613.570    22068485.656    90366786.598    22068485.094  
  25416235.352   133563227.304                   104075270.530    25416244.098  
  25076278.773   131776807.677    25076284.656   102683222.633    25076284.203  
  25803723.125   135599600.921    25803733.039   105661971.729    25803731.793  
  22636765.086   118957193.830    22636770.367    92693832.138                  
  20627295.367   108397069.534    20627301.133    84465410.931    20627300.785  
  23279908.484   122336661.312    23279914.602    95327397.079    23279915.105  
  20457756.266   107506275.954    20457761.398    83771174.802    20457761.434  
  21336624.023   112124752.519    21336627.559    87369985.569                  
  24244150.813   127403817.832    24244155.137    99275788.992                  
  23248884.953   122173652.462    23248893.797    95200374.376    23248894.102  
  22985663.336   120790369.187    22985670.594    94122536.180    22985670.695  
 22 01 08 01 00 31.0000000  0 12G01G06G07G10G13G14G15G17G19G21G24G30
  22068528.016   115970881.332    22068536.293    90366995.241    22068535.504  
  25415512.391   133559428.710                   104072310.596    25415521.402  
  25076998.633   131780589.734    25077004.363   102686169.697    25077004.238  
  25803904.102   135600552.996    25803914.000   105662713.615    25803912.684  
  22637288.516   118959940.887    22637293.387    92695972.699                  
  20627545.039   108398379.095    20627550.121    84466431.364    20627549.785  
  23280271.180   122338564.743    23280277.285    95328880.276    23280277.820  
  20457643.672   107505684.605    20457648.406    83770714.009    20457648.148  
  21336106.109   112122031.270    21336109.840    87367865.120                  
  24244578.078   127406063.377    24244582.246    99277538.769                  
  23248278.922   122170466.325    23248287.781    95197891.674    23248288.105  
  22986308.781   120793765.009    22986316.391    94125182.273    22986316.590  
 22 01 08 01 00 32.0000000  0 12G01G06G07G10G13G14G15G17G19G21G24G30
  22068578.719   115971149.845    22068587.336    90367204.470    22068586.586  
  25414790.195   133555630.135                   104069350.676    25414798.535  
  25077718.156   131784371.912    25077724.012   102689116.853    25077724.078  
  25804086.406   135601505.725    25804095.555   105663456.012    25804094.453  
  22637810.531   118962688.407    22637816.023    92698113.628                  
  20627793.859   108399689.047    20627799.551    84467452.104    20627799.348  
  23280633.023   122340468.717    23280639.523    95330363.892    23280639.688  
  20457531.539   107505093.839    20457536.438    83770253.670    20457536.426  
  21335588.016   112119310.509    21335591.793    87365745.045                  
  24245005.227   127408309.337    24245009.578    99279288.864                  
  23247672.805   122167280.538    23247680.992    95195409.246    23247681.180  
  22986954.773   120797161.108    22986962.816    94127828.588    22986962.949  
 22 01 08 01 00 33.0000000  0 12G01G06G07G10G13G14G15G17G19G21G24G30
  22068630.344   115971419.120    22068638.473    90367414.295    22068637.832  
  25414067.109   133551831.321                   104066390.568    25414076.090  
  25078437.430   131788154.118    25078444.082   102692064.024    25078444.113  
  25804268.719   135602458.897    25804276.820   105664198.750    25804275.996  
  22638333.688   118965436.323    22638339.078    92700254.858                  
  20628043.328   108400999.369    20628048.777    84468473.136    20628048.480  
  23280995.414   122342373.166    23281002.281    95331847.880    23281002.332  
  20457419.039   107504503.580    20457423.719    83769793.729    20457423.613  
  21335070.500   112116590.149    21335074.215    87363625.285                  
  24245432.586   127410555.814    24245436.984    99281039.381                  
  23247066.289   122164095.039    23247075.035    95192927.040    23247075.227  
  22987601.109   120800557.495    22987609.109    94130475.122    22987608.977  
 22 01 08 01 00 34.0000000  0 12G01G06G07G10G13G14G15G17G19G21G24G30
  22068681.914   115971689.169    22068690.137    90367624.724    22068689.438  
  25413344.578   133548032.463                   104063430.420    25413353.309  
  25079158.125   131791936.463    25079163.641   102695011.304    25079163.711  
  25804449.805   135603412.666    25804458.277   105664941.948    25804457.766  
  22638856.336   118968184.667    22638861.762    92702396.431                  
  20628292.586   108402310.070    20628297.953    84469494.462    20628297.719  
  23281358.086   122344278.185    23281364.340    95333332.312    23281364.477  
  20457307.141   107503913.890    20457311.738    83769334.237    20457311.527  
  21334552.664   112113870.271    21334556.773    87361505.899                  
  24245860.719   127412802.556    24245864.977    99282790.119                  
  23246460.539   122160909.844    23246469.035    95190445.074    23246469.180  
  22988247.469   120803954.158    22988255.336    94133121.867    22988255.594  
 22 01 08 01 00 35.0000000  0 12G01G06G07G10G13G14G15G17G19G21G24G30
  22068732.656   115971959.965    22068741.859    90367835.740    22068741.133  
  25412621.578   133544233.643                   104060470.307    25412630.324  
  25079877.898   131795718.838    25079883.621   102697958.605    25079883.664  
  25804631.867   135604366.993    25804639.152   105665685.587    25804638.848  
  22639379.508   118970933.453    22639384.707    92704538.346                  
  20628541.906   108403621.171    20628547.727    84470516.101    20628547.340  
  23281720.359   122346183.721    23281727.215    95334817.143    23281727.371  
  20457194.813   107503324.775    20457199.672    83768875.179    20457199.520  
  21334035.586   112111150.870    21334039.086    87359386.889                  
  24246288.156   127415049.855    24246292.125    99284541.269                  
  23245854.055   122157724.978    23245862.840    95187963.364    23245862.855  
  22988894.109   120807351.112    22988901.777    94135768.846    22988901.855  
 22 01 08 01 00 36.0000000  0 12G01G06G07G10G13G14G15G17G19G21G24G30
  22068784.250   115972231.534    22068793.176    90368047.348    22068792.258  
  25411897.820   133540434.608                   104057510.026    25411906.695  
  25080597.047   131799501.311    25080603.207   102700905.995    25080603.277  
  25804813.242   135605321.880    25804820.914   105666429.662    25804820.340  
  22639902.023   118973682.631    22639907.855    92706680.566                  
  20628791.625   108404932.650    20628797.543    84471538.030    20628797.277  
  23282082.914   122348089.753    23282089.805    95336302.362    23282089.926  
  20457082.891   107502736.186    20457087.676    83768416.544    20457087.828  
  21333517.805   112108431.890    21333521.754    87357268.204                  
  24246715.609   127417297.606    24246719.715    99286292.754                  
  23245248.094   122154540.406    23245257.020    95185481.878    23245257.234  
  22989540.563   120810748.309    22989548.574    94138416.011    22989548.195  
 22 01 08 01 00 37.0000000  0 12G01G06G07G10G13G14G15G17G19G21G24G30
  22068836.961   115972503.827    22068845.621    90368259.527    22068845.281  
  25411175.813   133536635.467                   104054549.668    25411183.449  
  25081316.633   131803283.842    25081323.188   102703853.418    25081322.934  
  25804995.039   135606277.302    25805002.789   105667174.145    25805001.809  
  22640426.172   118976432.225    22640431.242    92708823.107                  
  20629041.430   108406244.514    20629047.004    84472560.263    20629046.656  
  23282445.969   122349996.307    23282452.840    95337787.991    23282452.684  
  20456970.867   107502148.136    20456975.633    83767958.324    20456975.473  
  21333000.578   112105713.339    21333004.684    87355149.852                  
  24247143.477   127419545.689    24247147.969    99288044.513                  
  23244642.563   122151356.141    23244650.973    95183000.635    23244651.004  
  22990187.227   120814145.795    22990195.188    94141063.405    22990194.984  
 22 01 08 01 00 38.0000000  0 12G01G06G07G10G13G14G15G17G19G21G24G30
  22068888.586   115972776.917    22068897.008    90368472.323    22068896.520  
  25410452.695   133532836.288                   104051589.274    25410459.695  
  25082037.031   131807066.460    25082043.082   102706800.910    25082042.754  
  25805176.695   135607233.294    25805184.699   105667919.064    25805183.691  
  22640949.359   118979182.276    22640954.730    92710966.007                  
  20629291.164   108407556.776    20629296.852    84473582.804    20629296.727  
  23282808.797   122351903.417    23282815.426    95339274.052    23282815.500  
  20456859.164   107501560.657    20456863.844    83767500.547    20456863.969  
  21332483.578   112102995.291    21332486.887    87353031.892                  
  24247570.727   127421794.260    24247576.105    99289796.637                  
  23244036.742   122148172.195    23244045.047    95180519.635    23244045.043  
  22990833.648   120817543.555    22990841.648    94143711.014    22990841.656  
 22 01 08 01 00 39.0000000  0 12G01G06G07G10G13G14G15G17G19G21G24G30
  22068940.586   115973050.751    22068949.305    90368685.704    22068948.918  
  25409729.906   133529037.074                   104048628.846    25409736.926  
  25082757.227   131810849.119    25082763.121   102709748.436    25082762.656  
  25805358.883   135608189.838    25805366.363   105668664.423    25805365.273  
  22641472.492   118981932.729    22641478.305    92713109.214                  
  20629540.945   108408869.417    20629546.156    84474605.642    20629546.020  
  23283171.945   122353811.013    23283178.793    95340760.483    23283179.270  
  20456747.352   107500973.729    20456752.180    83767043.202    20456752.230  
  21331966.695   112100277.682    21331969.969    87350914.280                  
  24247999.055   127424043.301    24248003.762    99291549.109                  
  23243431.242   122144988.578    23243439.223    95178038.899    23243439.309  
  22991480.539   120820941.594    22991487.902    94146358.836    22991487.777  
 22 01 08 01 00 40.0000000  0 12G01G06G07G10G13G14G15G17G19G21G24G30
  22068992.500   115973325.334    22069001.637    90368899.663    22069001.277  
  25409005.852   133525237.658                   104045668.259    25409014.258  
  25083476.703   131814631.881    25083482.926   102712696.039    25083482.855  
  25805541.516   135609146.923    25805548.645   105669410.195    25805547.566  
  22641996.156   118984683.576    22642001.535    92715252.724                  
  20629790.680   108410182.441    20629796.578    84475628.779    20629796.328  
  23283535.000   122355719.132    23283541.637    95342247.324    23283541.609  
  20456636.148   107500387.332    20456640.484    83766586.267    20456640.461  
  21331449.289   112097560.509    21331453.246    87348797.012                  
  24248427.625   127426292.694    24248431.723    99293301.877                  
  23242825.352   122141805.232    23242833.066    95175558.371    23242833.223  
  22992127.125   120824339.905    22992134.645    94149006.871    22992134.949  
 22 01 08 01 00 41.0000000  0 12G01G06G07G10G13G14G15G17G19G21G24G30
  22069045.180   115973600.739    22069053.852    90369114.262    22069053.426  
  25408282.781   133521438.256                   104042707.688    25408291.398  
  25084196.516   131818414.770    25084202.938   102715643.745    25084202.566  
  25805723.320   135610104.613    25805731.207   105670156.435    25805729.695  
  22642520.500   118987434.923    22642525.273    92717396.628                  
  20630040.680   108411495.886    20630046.582    84476652.246    20630046.363  
  23283897.953   122357627.800    23283904.906    95343734.588    23283904.977  
  20456524.273   107499801.529    20456529.457    83766129.795    20456529.207  
  21330931.742   112094843.867    21330936.148    87346680.141                  
  24248855.578   127428542.580    24248860.078    99295055.038                  
  23242218.633   122138622.279    23242227.301    95173078.150    23242227.676  
  22992774.133   120827738.526    22992781.242    94151655.146    22992781.832  
 22 01 08 01 00 42.0000000  0 12G01G06G07G10G13G14G15G17G19G21G24G30
  22069097.445   115973876.849    22069106.520    90369329.416    22069105.992  
  25407560.805   133517638.720                   104039747.013    25407568.539  
  25084916.172   131822197.674    25084922.176   102718591.466    25084921.895  
  25805905.188   135611062.829    25805913.449   105670903.085    25805912.207  
  22643043.758   118990186.643    22643049.051    92719540.826                  
  20630290.609   108412809.688    20630296.203    84477675.983    20630296.230  
  23284261.328   122359536.979    23284268.129    95345222.259    23284268.238  
  20456412.766   107499216.216    20456417.652    83765673.706    20456417.410  
  21330415.234   112092127.619    21330418.945    87344563.584                  
  24249283.320   127430792.882    24249288.254    99296808.525                  
  23241613.695   122135439.571    23241621.633    95170598.111    23241621.973  
  22993420.281   120831137.382    22993428.094    94154303.600    22993428.449  
 22 01 08 01 00 43.0000000  0 12G01G06G07G10G13G14G15G17G19G21G24G30
  22069150.531   115974153.740    22069159.035    90369545.179    22069158.504  
  25406837.156   133513839.113                   104036786.287    25406845.000  
  25085635.906   131825980.630    25085642.695   102721539.223    25085642.141  
  25806088.570   135612021.568    25806095.840   105671650.144    25806094.379  
  22643567.242   118992938.752    22643572.629    92721685.335                  
  20630540.984   108414123.877    20630546.332    84478700.029    20630545.852  
  23284625.195   122361446.673    23284631.398    95346710.332    23284631.523  
  20456301.586   107498631.497    20456306.566    83765218.082    20456306.316  
  21329898.117   112089411.819    21329902.234    87342447.375                  
  24249712.211   127433043.595    24249716.914    99298562.351                  
  23241007.578   122132257.201    23241016.070    95168118.343    23241016.418  
  22994067.359   120834536.524    22994075.184    94156952.283    22994075.434  
 22 01 08 01 00 44.0000000  0 12G01G06G07G10G13G14G15G17G19G21G24G30
  22069203.031   115974431.377    22069211.828    90369761.520    22069211.133  
  25406113.367   133510039.391                   104033825.457    25406122.375  
  25086356.508   131829763.699    25086362.949   102724487.068    25086362.141  
  25806271.242   135612980.873    25806278.078   105672397.657    25806276.609  
  22644091.281   118995691.339    22644096.918    92723830.210                  
  20630791.117   108415438.458    20630796.379    84479724.380    20630796.191  
  23284988.078   122363356.852    23284995.227    95348198.780    23284995.043  
  20456190.625   107498047.313    20456195.699    83764762.875    20456195.555  
  21329381.859   112086696.485    21329385.828    87340331.536                  
  24250140.922   127435294.747    24250145.023    99300316.459                  
  23240402.063   122129075.145    23240410.730    95165638.822    23240411.008  
  22994714.133   120837935.975    22994721.660    94159601.207    22994722.250  
 22 01 08 01 00 45.0000000  0 12G01G06G07G10G13G14G15G17G19G21G24G30
  22069256.117   115974709.769    22069264.828    90369978.449    22069264.398  
  25405390.328   133506239.689                   104030864.648    25405398.797  
  25087075.383   131833546.792    25087082.367   102727434.936    25087081.688  
  25806453.438   135613940.754    25806460.527   105673145.617    25806459.086  
  22644614.938   118998444.332    22644620.172    92725975.394                  
  20631041.047   108416753.430    20631046.723    84480749.035    20631046.480  
  23285351.656   122365267.624    23285358.750    95349687.695    23285358.672  
  20456079.289   107497463.692    20456084.242    83764308.105    20456084.063  
  21328865.266   112083981.638    21328869.035    87338216.069                  
  24250569.109   127437546.331    24250573.793    99302070.965                  
  23239797.117   122125893.383    23239805.258    95163159.529    23239805.582  
  22995360.898   120841335.668    22995368.793    94162250.318    22995369.055  
 22 01 08 01 00 46.0000000  0 12G01G06G07G10G13G14G15G17G19G21G24G30
  22069309.969   115974988.943    22069318.238    90370195.988    22069317.648  
  25404667.398   133502439.750                   104027903.661    25404676.055  
  25087795.586   131837330.033    25087802.172   102730382.918    25087801.746  
  25806636.781   135614901.184    25806643.152   105673893.999    25806641.703  
  22645138.828   119001197.763    22645144.773    92728120.915                  
  20631291.594   108418068.788    20631296.867    84481773.988    20631296.766  
  23285716.016   122367178.862    23285722.723    95351176.980    23285722.367  
  20455968.289   107496880.620    20455973.270    83763853.761    20455973.309  
  21328348.672   112081267.216    21328352.520    87336100.930                  
  24250997.789   127439798.374    24251002.547    99303825.817                  
  23239191.547   122122711.952    23239199.809    95160680.490    23239200.340  
  22996008.484   120844735.651    22996015.973    94164899.657    22996016.047  
 22 01 08 01 00 47.0000000  0 12G01G06G07G10G13G14G15G17G19G21G24G30
  22069363.109   115975268.890    22069371.652    90370414.126    22069370.906  
  25403944.352   133498639.871                   104024942.713    25403952.309  
  25088515.344   131841113.294    25088521.848   102733330.918    25088521.508  
  25806818.891   135615862.186    25806825.859   105674642.824    25806824.430  
  22645662.914   119003951.625    22645668.637    92730266.781                  
  20631541.820   108419384.550    20631547.262    84482799.252    20631547.027  
  23286079.703   122369090.669    23286086.207    95352666.706    23286086.039  
  20455857.664   107496298.101    20455862.340    83763399.855    20455862.621  
  21327831.805   112078553.271    21327835.930    87333986.169                  
  24251426.492   127442050.882    24251430.906    99305581.007                  
  23238586.602   122119530.841    23238594.438    95158201.703    23238594.977  
  22996655.109   120848135.932    22996662.691    94167549.226    22996662.844  
 22 01 08 01 00 48.0000000  0 12G01G06G07G10G13G14G15G17G19G21G24G30
  22069416.172   115975549.583    22069424.848    90370632.843    22069424.039  
  25403221.336   133494839.812                   104021981.623    25403229.422  
  25089235.469   131844896.667    25089242.336   102736278.999    25089242.445  
  25807001.953   135616823.706    25807008.672   105675392.059    25807007.566  
  22646187.227   119006705.896    22646192.219    92732412.968                  
  20631792.094   108420700.675    20631797.793    84483824.810    20631797.590  
  23286443.383   122371002.965    23286450.453    95354156.816    23286450.188  
  20455746.688   107495716.140    20455751.695    83762946.377    20455751.441  
  21327315.836   112075839.779    21327319.887    87331871.768                  
  24251854.586   127444303.754    24251859.656    99307336.479                  
  23237981.461   122116350.062    23237989.152    95155723.177    23237989.535  
  22997302.258   120851536.480    22997309.996    94170199.001    22997310.238  
 22 01 08 01 00 49.0000000  0 12G01G06G07G10G13G14G15G17G19G21G24G30
  22069469.602   115975831.036    22069478.375    90370852.163    22069477.832  
  25402498.414   133491039.719                   104019020.514    25402505.801  
  25089956.070   131848680.081    25089961.637   102739227.107    25089961.457  
  25807185.109   135617785.811    25807191.758   105676141.758    25807190.867  
  22646711.328   119009460.592    22646716.664    92734559.487                  
  20632042.898   108422017.202    20632048.129    84484850.670    20632047.801  
  23286807.727   122372915.811    23286814.227    95355647.344    23286814.043  
  20455636.141   107495134.744    20455641.137    83762493.341    20455641.270  
  21326799.688   112073126.719    21326803.281    87329757.694                  
  24252283.625   127446557.089    24252288.746    99309092.323                  
  23237375.563   122113169.556    23237383.801    95153244.857    23237384.363  
  22997949.484   120854937.303    22997957.016    94172848.993    22997957.320  
 22 01 08 01 00 50.0000000  0 12G01G06G07G10G13G14G15G17G19G21G24G30
  22069523.016   115976113.279    22069532.031    90371072.092    22069531.273  
  25401774.797   133487239.561                   104016059.361    25401783.180  
  25090675.406   131852463.601    25090681.648   102742175.302    25090681.293  
  25807369.070   135618748.503    25807375.180   105676891.912    25807374.395  
  22647235.719   119012215.723    22647240.789    92736706.341                  
  20632293.383   108423334.116    20632299.000    84485876.843    20632298.656  
  23287171.422   122374829.181    23287177.957    95357138.284    23287177.676  
  20455525.711   107494553.884    20455530.711    83762040.724    20455530.789  
  21326283.648   112070414.142    21326286.824    87327643.991                  
  24252712.883   127448810.853    24252717.809    99310848.496                  
  23236770.266   122109989.374    23236778.691    95150766.787    23236779.391  
  22998597.281   120858338.399    22998604.488    94175499.194    22998604.539  
 22 01 08 01 00 51.0000000  0 12G01G06G07G10G13G14G15G17G19G21G24G30
  22069577.102   115976396.267    22069586.168    90371292.602    22069585.227  
  25401052.031   133483439.237                   104013098.076    25401060.512  
  25091395.555   131856247.187    25091401.441   102745123.552    25091400.941  
  25807551.203   135619711.725    25807558.273   105677642.469    25807557.422  
  22647759.758   119014971.274    22647765.270    92738853.524                  
  20632544.219   108424651.439    20632549.531    84486903.325    20632549.207  
  23287536.281   122376743.087    23287542.469    95358629.637    23287542.148  
  20455415.305   107493973.582    20455420.090    83761588.542    20455420.172  
  21325767.555   112067702.020    21325770.977    87325530.649                  
  24253141.836   127451065.085    24253146.242    99312605.029                  
  23236165.148   122106809.541    23236173.863    95148288.992    23236174.273  
  22999244.266   120861739.795    22999251.938    94178149.632    22999251.957  
 22 01 08 01 00 52.0000000  0 12G01G06G07G10G13G14G15G17G19G21G24G30
  22069630.852   115976679.999    22069640.066    90371513.695    22069639.340  
  25400328.422   133479638.834                   104010136.730    25400336.820  
  25092115.648   131860030.800    25092121.555   102748071.825    25092121.527  
  25807734.148   135620675.468    25807741.672   105678393.429    25807740.871  
  22648283.898   119017727.231    22648289.715    92741001.028                  
  20632794.805   108425969.120    20632800.336    84487930.089    20632799.875  
  23287900.469   122378657.442    23287906.648    95360121.337    23287906.688  
  20455305.141   107493393.802    20455310.227    83761136.768    20455310.109  
  21325251.477   112064990.346    21325254.992    87323417.664                  
  24253570.898   127453319.682    24253575.266    99314361.878                  
  23235561.148   122103629.970    23235568.945    95145811.408    23235569.293  
  22999891.258   120865141.445    22999898.918    94180800.264    22999898.828  
 22 01 08 01 00 53.0000000  0 12G01G06G07G10G13G14G15G17G19G21G24G30
  22069684.563   115976964.513    22069693.895    90371735.393    22069693.266  
  25399605.984   133475838.451                   104007175.388    25399613.230  
  25092836.008   131863814.566    25092841.781   102751020.216    25092841.828  
  25807918.250   135621639.775    25807925.527   105679144.826    25807924.395  
  22648809.180   119020483.616    22648814.406    92743148.863                  
  20633045.477   108427287.196    20633051.152    84488957.158    20633050.992  
  23288264.938   122380572.375    23288271.074    95361613.492    23288271.051  
  20455194.727   107492814.611    20455199.875    83760685.450    20455199.695  
  21324735.273   112062279.125    21324739.004    87321305.022                  
  24253999.578   127455574.740    24254004.504    99316119.072                  
  23234955.055   122100450.748    23234963.758    95143334.095    23234963.859  
  23000539.156   120868543.366    23000546.574    94183451.114    23000546.430  
 22 01 08 01 00 54.0000000  0 12G01G06G07G10G13G14G15G17G19G21G24G30
  22069739.641   115977249.825    22069748.559    90371957.716    22069747.879  
  25398882.586   133472037.906                   104004213.933    25398890.488  
  25093555.734   131867598.351    25093561.813   102753968.612    25093561.816  
  25808102.289   135622604.685    25808109.355   105679896.707    25808107.871  
  22649333.313   119023240.451    22649338.980    92745297.038                  
  20633296.922   108428605.669    20633302.359    84489984.544    20633302.004  
  23288629.234   122382487.827    23288635.617    95363106.051    23288635.645  
  20455084.797   107492235.958    20455089.602    83760234.550    20455089.699  
  21324219.922   112059568.389    21324223.199    87319192.761                  
  24254428.977   127457830.258    24254433.625    99317876.615                  
  23234351.172   122097271.816    23234358.629    95140857.011    23234358.430  
  23001186.156   120871945.596    23001193.895    94186102.203    23001193.699  
 22 01 08 01 00 55.0000000  0 12G01G06G07G10G13G14G15G17G19G21G24G30
  22069794.531   115977535.843    22069802.699    90372180.589    22069802.023  
  25398158.617   133468237.267                   104001252.399    25398167.109  
  25094276.102   131871382.260    25094281.660   102756917.114    25094281.625  
  25808285.664   135623570.138    25808293.051   105680649.005    25808291.465  
  22649857.914   119025997.708    22649863.734    92747445.544                  
  20633547.672   108429924.542    20633553.273    84491012.231    20633552.914  
  23288994.031   122384403.788    23289000.125    95364599.007    23289000.352  
  20454974.719   107491657.862    20454979.254    83759784.088    20454979.316  
  21323703.992   112056858.085    21323707.762    87317080.841                  
  24254858.125   127460086.184    24254862.961    99319634.482                  
  23233745.906   122094093.233    23233754.105    95138380.193    23233753.922  
  23001833.453   120875348.094    23001841.441    94188753.503    23001840.980  
 22 01 08 01 00 56.0000000  0 12G01G06G07G10G13G14G15G17G19G21G24G30
  22069848.484   115977822.684    22069857.113    90372404.098    22069856.223  
  25397436.813   133464436.619                   103998290.853    25397443.664  
  25094995.578   131875166.190    25095001.789   102759865.629    25095001.539  
  25808469.547   135624536.155    25808477.066   105681401.731    25808475.891  
  22650382.938   119028755.362    22650388.574    92749594.363                  
  20633798.422   108431243.790    20633804.129    84492040.218    20633803.680  
  23289358.359   122386320.271    23289364.844    95366092.368    23289365.035  
  20454864.984   107491080.327    20454869.801    83759334.059    20454869.500  
  21323188.094   112054148.253    21323191.711    87314969.286                  
  24255287.906   127462342.560    24255292.711    99321392.706                  
  23233141.406   122090914.973    23233149.156    95135903.625    23233149.012  
  23002481.102   120878750.868    23002488.902    94191405.012    23002488.500  
 22 01 08 01 00 57.0000000  0 12G01G06G07G10G13G14G15G17G19G21G24G30
  22069903.438   115978110.236    22069912.488    90372628.162    22069911.551  
  25396713.750   133460635.825    25396720.855   103995329.188    25396720.227  
  25095715.141   131878950.216    25095722.129   102762814.228    25095721.910  
  25808654.188   135625502.690    25808661.047   105682154.866    25808659.891  
  22650907.977   119031513.468    22650912.957    92751743.533                  
  20634049.453   108432563.436    20634055.387    84493068.514    20634055.016  
  23289723.516   122388237.312    23289729.902    95367586.163    23289729.910  
  20454755.180   107490503.353    20454760.090    83758884.466    20454760.105  
  21322672.484   112051438.885    21322676.340    87312858.088                  
  24255717.313   127464599.372    24255721.973    99323151.267                  
  23232536.039   122087737.016    23232544.430    95133427.296    23232544.449  
  23003128.492   120882153.931    23003136.988    94194056.750    23003136.504  
 22 01 08 01 00 58.0000000  0 12G01G06G07G10G13G14G15G17G19G21G24G30
  22069958.578   115978398.541    22069967.133    90372852.819    22069966.195  
  25395991.320   133456834.976    25395997.707   103992367.479    25395997.090  
  25096436.234   131882734.305    25096442.285   102765762.867    25096441.918  
  25808837.172   135626469.769    25808844.887   105682908.437    25808844.113  
  22651433.023   119034271.959    22651438.316    92753893.014                  
  20634301.031   108433883.455    20634306.070    84494097.103    20634306.004  
  23290088.578   122390154.821    23290094.445    95369080.320    23290094.801  
  20454645.734   107489926.903    20454650.270    83758435.285    20454650.414  
  21322156.898   112048729.950    21322160.492    87310747.232                  
  24256146.914   127466856.604    24256151.445    99324910.136                  
  23231930.766   122084559.372    23231939.871    95130951.207    23231940.164  
  23003776.445   120885557.237    23003784.254    94196708.676    23003783.836  
 22 01 08 01 00 59.0000000  0 12G01G06G07G10G13G14G15G17G19G21G24G30
  22070013.359   115978687.631    22070022.176    90373078.085    22070021.164  
  25395266.969   133453033.952    25395274.695   103989405.637    25395274.219  
  25097155.703   131886518.463    25097162.371   102768711.561    25097161.813  
  25809020.461   135627437.414    25809029.160   105683662.458    25809028.363  
  22651957.641   119037030.888    22651963.176    92756042.826                  
  20634552.000   108435203.845    20634557.473    84495125.981    20634557.352  
  23290453.586   122392072.863    23290459.625    95370574.909    23290459.918  
  20454535.719   107489351.017    20454540.578    83757986.543    20454540.348  
  21321641.234   112046021.485    21321645.207    87308636.740                  
  24256576.734   127469114.248    24256581.176    99326669.354                  
  23231326.836   122081382.015    23231335.313    95128475.348    23231335.551  
  23004423.969   120888960.821    23004431.828    94199360.819    23004431.563  
 22 01 08 01 01 00.0000000  0 12G01G06G07G10G13G14G15G17G19G21G24G30
  22070069.297   115978977.456    22070077.203    90373303.921    22070076.551  
  25394543.313   133449232.906    25394551.031   103986443.783    25394550.594  
  25097875.820   131890302.672    25097882.262   102771660.293    25097881.699  
  25809205.391   135628405.589    25809213.918   105684416.887    25809213.090  
  22652482.898   119039790.224    22652488.434    92758192.971                  
  20634803.227   108436524.619    20634809.289    84496155.158    20634809.082  
  23290818.219   122393991.401    23290824.797    95372069.871    23290824.652  
  20454426.281   107488775.656    20454431.152    83757538.210    20454431.031  
  21321126.063   112043313.460    21321130.004    87306526.593                  
  24257005.906   127471372.324    24257010.590    99328428.885                  
  23230722.703   122078204.972    23230730.848    95125999.731    23230730.941  
  23005071.555   120892364.682    23005079.523    94202013.181    23005079.215  
 22 01 08 01 01 01.0000000  0 12G01G06G07G10G13G14G15G17G19G21G24G30
  22070123.695   115979268.068    22070132.957    90373530.367    22070132.273  
  25393820.852   133445431.807    25393827.582   103983481.895    25393827.461  
  25098596.250   131894086.994    25098602.609   102774609.112    25098602.254  
  25809388.711   135629374.357    25809398.098   105685171.769    25809397.176  
  22653007.297   119042549.993    22653013.391    92760343.437                  
  20635054.820   108437845.804    20635060.566    84497184.650    20635060.262  
  23291183.258   122395910.514    23291190.520    95373565.284    23291190.418  
  20454316.914   107488200.892    20454322.148    83757090.341    20454321.719  
  21320610.852   112040605.915    21320615.301    87304416.819                  
  24257435.648   127473630.817    24257440.754    99330188.752                  
  23230117.477   122075028.253    23230126.258    95123524.366    23230126.418  
  23005719.445   120895768.844    23005727.254    94204665.771    23005727.211  
 22 01 08 01 01 02.0000000  0 12G01G06G07G10G13G14G15G17G19G21G24G30
  22070178.844   115979559.428    22070187.734    90373757.405    22070187.004  
  25393096.094   133441630.612    25393104.172   103980519.931    25393103.914  
  25099316.219   131897871.363    25099322.578   102777557.964    25099322.008  
  25809574.031   135630343.664    25809582.086   105685927.070    25809581.242  
  22653533.281   119045310.196    22653538.621    92762494.234                  
  20635306.117   108439167.383    20635311.789    84498214.456    20635311.621  
  23291548.172   122397830.146    23291555.574    95375061.102    23291555.645  
  20454207.406   107487626.650    20454212.672    83756642.884    20454212.465  
  21320096.023   112037898.831    21320099.578    87302307.405                  
  24257865.539   127475889.745    24257870.664    99331948.953                  
  23229513.805   122071851.853    23229521.930    95121049.248    23229521.875  
  23006367.375   120899173.263    23006375.316    94207318.566    23006375.184  
 22 01 08 01 01 03.0000000  0 12G01G06G07G10G13G14G15G17G19G21G24G30
  22070235.320   115979851.592    22070243.184    90373985.061    22070242.738  
  25392373.297   133437829.280    25392381.043   103977557.858    25392381.141  
  25100036.086   131901655.846    25100042.945   102780506.915    25100042.035  
  25809758.578   135631313.575    25809766.793   105686682.832    25809765.883  
  22654058.430   119048070.845    22654063.922    92764645.384                  
  20635557.797   108440489.342    20635563.602    84499244.556    20635563.281  
  23291913.430   122399750.286    23291920.660    95376557.312    23291920.652  
  20454098.609   107487052.989    20454103.406    83756195.878    20454103.270  
  21319581.055   112035192.216    21319584.348    87300198.353                  
  24258295.813   127478149.155    24258300.555    99333709.536                  
  23228908.805   122068675.811    23228917.879    95118574.412    23228917.891  
  23007014.773   120902577.994    23007023.840    94209971.604    23007023.590  
 22 01 08 01 01 04.0000000  0 12G01G06G07G10G13G14G15G17G19G21G24G30
  22070290.148   115980144.468    22070299.109    90374213.273    22070298.609  
  25391649.570   133434027.889    25391657.559   103974595.738    25391657.590  
  25100756.258   131905440.345    25100762.992   102783455.879    25100762.125  
  25809943.156   135632283.960    25809951.918   105687438.977    25809950.961  
  22654583.875   119050831.863    22654589.496    92766796.827                  
  20635809.766   108441811.680    20635814.973    84500274.943    20635814.820  
  23292279.516   122401670.917    23292286.371    95378053.908    23292286.160  
  20453988.836   107486479.846    20453994.059    83755749.269    20453993.871  
  21319065.852   112032486.010    21319069.926    87298089.623                  
  24258725.883   127480408.921    24258730.926    99335470.390                  
  23228304.516   122065500.009    23228313.328    95116099.758    23228312.938  
  23007662.695   120905982.939    23007671.766    94212624.808    23007671.559  
 22 01 08 01 01 05.0000000  0 12G01G06G07G10G13G14G15G17G19G21G24G30
  22070346.648   115980438.128    22070354.941    90374442.103    22070354.566  
  25390926.398   133430226.451    25390934.215   103971633.588    25390934.195  
  25101476.102   131909224.968    25101483.141   102786404.929    25101482.516  
  25810128.633   135633254.958    25810136.891   105688195.604    25810135.805  
  22655109.164   119053593.331    22655115.082    92768948.618                  
  20636061.258   108443134.413    20636066.605    84501305.648    20636066.324  
  23292645.500   122403592.081    23292651.766    95379550.915    23292651.469  
  20453880.555   107485907.293    20453885.246    83755303.128    20453885.074  
  21318551.508   112029780.295    21318554.379    87295981.270                  
  24259155.250   127482669.173    24259161.008    99337231.616                  
  23227700.594   122062324.579    23227708.750    95113625.395    23227708.551  
  23008310.891   120909388.225    23008319.340    94215278.272    23008319.152  
 22 01 08 01 01 06.0000000  0 12G01G06G07G10G13G14G15G17G19G21G24G30
  22070401.867   115980732.558    22070410.688    90374671.528    22070410.504  
  25390203.422   133426424.916    25390210.660   103968671.354    25390210.789  
  25102196.273   131913009.654    25102203.695   102789354.029    25102202.688  
  25810312.430   135634226.524    25810321.492   105688952.667    25810320.617  
  22655634.984   119056355.263    22655640.602    92771100.773                  
  20636313.172   108444457.541    20636318.625    84502336.653    20636318.609  
  23293011.023   122405513.814    23293017.883    95381048.366    23293017.621  
  20453771.500   107485335.279    20453776.203    83754857.399    20453775.969  
  21318036.492   112027075.050    21318040.133    87293873.293                  
  24259585.633   127484929.881    24259591.184    99338993.193                  
  23227096.047   122059149.451    23227104.629    95111151.275    23227104.590  
  23008959.188   120912793.763    23008967.285    94217931.940    23008967.285  
 22 01 08 01 01 07.0000000  0 12G01G06G07G10G13G14G15G17G19G21G24G30
  22070458.391   115981027.702    22070466.512    90374901.514    22070466.215  
  25389478.875   133422623.261    25389487.113   103965709.027    25389487.547  
  25102916.164   131916794.358    25102924.125   102792303.143    25102923.156  
  25810497.234   135635198.492    25810506.430   105689710.046    25810505.457  
  22656160.398   119059117.511    22656165.992    92773253.181                  
  20636564.797   108445781.024    20636570.574    84503367.944    20636570.105  
  23293377.156   122407435.990    23293383.324    95382546.174    23293382.914  
  20453662.461   107484763.774    20453667.730    83754412.076    20453667.457  
  21317521.461   112024370.197    21317525.375    87291765.611                  
  24260015.875   127487190.942    24260021.105    99340755.047                  
  23226492.125   122055974.597    23226500.500    95108677.363    23226500.414  
  23009607.734   120916199.518    23009615.457    94220585.769    23009615.258  
 22 01 08 01 01 08.0000000  0 12G01G06G07G10G13G14G15G17G19G21G24G30
  22070514.945   115981323.658    22070523.473    90375132.128    22070523.023  
  25388755.742   133418821.553    25388763.527   103962746.653    25388764.066  
  25103637.664   131920579.226    25103644.113   102795252.388    25103643.016  
  25810681.766                                                                  
  22656686.594   119061880.260    22656692.051    92775405.973                  
  20636817.094   108447104.939    20636822.480    84504399.563    20636821.996  
  23293742.836   122409358.760    23293749.133    95384044.434    23293749.258  
  20453554.094   107484192.872    20453559.484    83753967.212    20453559.188  
  21317006.758   112021665.866    21317010.484    87289658.344                  
  24260447.031   127489452.539    24260451.633    99342517.329                  
  23225888.258   122052800.122    23225896.816    95106203.746    23225896.719  
  23010255.563   120919605.654    23010263.672    94223239.898    23010263.473  
 22 01 08 01 01 09.0000000  0 12G01G06G07G10G13G14G15G17G19G21G24G30
  22070571.258   115981620.343    22070579.793    90375363.313    22070579.219  
  25388032.375   133415019.753    25388039.953   103959784.211    25388040.770  
  25104357.273   131924364.100    25104364.484   102798201.633    25104363.316  
  25810866.523   135637144.4541   25810876.375   105691226.3811   25810875.223  
  22657212.406   119064643.391    22657217.801    92777559.058                  
  20637069.102   108448429.204    20637074.531    84505431.459    20637074.238  
  23294107.977   122411281.986    23294114.926    95385543.050    23294114.844  
  20453445.500   107483622.478    20453450.695    83753522.755    20453450.371  
  21316492.547   112018961.953    21316496.242    87287551.399                  
  24260876.617   127491714.483    24260881.824    99344279.894                  
  23225284.047   122049625.911    23225292.660    95103730.332    23225292.613  
  23010903.703   120923011.977    23010911.801    94225894.181    23010911.848  
 22 01 08 01 01 10.0000000  0 12G01G06G07G10G13G14G15G17G19G21G24G30
  22070627.711   115981917.822    22070636.398    90375595.119    22070635.758  
  25387308.789   133411217.927    25387316.430   103956821.741    25387317.434  
  25105077.414   131928149.035    25105084.539   102801150.936    25105083.484  
  25811051.305   135638118.123    25811062.227   105691985.074    25811061.270  
  22657737.922   119067406.987    22657743.809    92779712.508                  
  20637321.133   108449753.882    20637326.434    84506463.675    20637326.172  
  23294474.125   122413205.754    23294481.227    95387042.085    23294481.063  
  20453337.000   107483052.675    20453342.258    83753078.749    20453341.961  
  21315978.188   112016258.534    21315981.488    87285444.835                  
  24261307.617   127493976.876    24261312.633    99346042.815                  
  23224680.359   122046452.071    23224688.848    95101257.214    23224688.762  
  23011551.813   120926418.633    23011559.922    94228548.718    23011559.883  
 22 01 08 01 01 11.0000000  0 12G01G06G07G10G13G14G15G17G19G21G24G30
  22070685.633   115982216.017    22070693.285    90375827.481    22070692.410  
  25386585.281   133407415.924    25386593.199   103953859.134    25386594.633  
  25105798.375   131931934.108    25105805.086   102804100.352    25105803.641  
  25811238.352   135639092.424    25811247.527   105692744.277    25811246.617  
  22658263.773   119070170.968    22658269.383    92781866.248                  
  20637573.016   108451078.921    20637578.695    84507496.173    20637578.520  
  23294840.930   122415130.059    23294847.668    95388541.543    23294847.137  
  20453228.680   107482483.382    20453233.965    83752635.147    20453233.570  
  21315463.852   112013555.541    21315466.941    87283338.611                  
  24261738.375   127496239.666    24261742.910    99347806.042                  
  23224076.242   122043278.499    23224084.496    95098784.301    23224084.297  
  23012200.484   120929825.532    23012208.668    94231203.443    23012208.402  
 22 01 08 01 01 12.0000000  0 12G01G06G07G10G13G14G15G17G19G21G24G30
  22070741.984   115982515.020    22070750.145    90376060.470    22070749.473  
  25385861.570   133403613.918    25385869.816   103950896.525    25385871.109  
  25106518.063   131935719.213    25106525.094   102807049.789    25106523.305  
  25811423.086   135640067.287    25811432.961   105693503.926    25811432.000  
  22658789.922   119072935.392    22658795.547    92784020.348                  
  20637825.344   108452404.385    20637830.844    84508528.998    20637830.516  
  23295206.734   122417054.886    23295213.789    95390041.403    23295213.387  
  20453120.531   107481914.670    20453125.906    83752191.991    20453125.445  
  21314949.180   112010853.029    21314953.387    87281232.760                  
  24262169.273   127498502.942    24262173.570    99349569.638                  
  23223471.859   122040105.259    23223480.789    95096311.650    23223480.664  
  23012848.617   120933232.737    23012856.711    94233858.408    23012856.488  
 22 01 08 01 01 13.0000000  0 12G01G06G07G10G13G14G15G17G19G21G24G30
  22070798.125   115982814.750    22070806.961    90376294.034    22070806.434  
  25385138.547   133399811.807    25385146.129   103947933.842    25385147.805  
  25107238.875   131939504.328    25107245.188   102809999.226    25107243.777  
  25811608.367   135641042.687    25811618.238   105694263.992    25811617.430  
  22659316.711   119075700.203    22659322.191    92786174.750                  
  20638077.188   108453730.196    20638082.992    84509562.099    20638082.785  
  23295572.539   122418980.182    23295580.055    95391541.638    23295579.918  
  20453012.359   107481346.493    20453017.547    83751749.252    20453017.418  
  21314434.898   112008150.942    21314438.914    87279127.237                  
  24262599.867   127500766.600    24262604.578    99351333.514                  
  23222867.781   122036932.336    23222876.906    95093839.240    23222876.805  
  23013496.930   120936640.179    23013505.469    94236513.560    23013505.176  
 22 01 08 01 01 14.0000000  0 12G01G06G07G10G13G14G15G17G19G21G24G30
  22070855.203   115983115.269    22070864.320    90376528.200    22070863.863  
  25384414.891   133396009.563    25384422.203   103944971.061    25384423.973  
  25107958.859   131943289.636    25107965.156   102812948.819    25107964.133  
  25811793.125   135642018.632    25811803.551   105695024.487    25811802.820  
  22659842.523   119078465.481    22659848.063    92788329.512                  
  20638329.727   108455056.418    20638335.355    84510595.515    20638334.813  
  23295940.266   122420906.053    23295946.633    95393042.317    23295946.238  
  20452904.234   107480778.891    20452909.629    83751306.969    20452909.223  
  21313921.352   112005449.351    21313924.723    87277022.103                  
  24263031.023   127503030.723    24263035.121    99353097.763                  
  23222263.859   122033759.709    23222273.234    95091367.065    23222273.234  
  23014145.102   120940047.922    23014153.742    94239168.943    23014153.238  
 22 01 08 01 01 15.0000000  0 12G01G06G07G10G13G14G15G17G19G21G24G30
  22070912.906   115983416.502    22070921.691    90376762.923    22070921.051  
  25383691.414   133392207.298    25383698.984   103942008.263    25383700.758  
  25108678.820   131947074.888    25108686.105   102815898.356    25108685.125  
  25811980.070   135642995.162    25811989.793   105695785.436    25811989.035  
  22660369.000   119081231.127    22660374.406    92790484.557                  
  20638582.234   108456383.020    20638588.188    84511629.235    20638587.895  
  23296305.570   122422832.386    23296313.152    95394543.356    23296312.461  
  20452796.359   107480211.808    20452801.535    83750865.087    20452801.203  
  21313407.023   112002748.176    21313410.801    87274917.295                  
  24263461.219   127505295.214    24263466.277    99354862.291                  
  23221660.328   122030587.426    23221669.434    95088895.160    23221669.414  
  23014794.117   120943455.912    23014801.730    94241824.516    23014801.359  
 22 01 08 01 01 16.0000000  0 12G01G06G07G10G13G14G15G17G19G21G24G30
  22070970.844   115983718.557    22070979.363    90376998.294    22070978.367  
  25382967.484   133388404.962    25382975.582   103939045.412    25382977.129  
  25109399.336   131950860.321    25109406.227   102818848.039    25109405.117  
  25812165.469   135643972.299    25812175.613   105696546.839    25812174.879  
  22660895.898   119083997.253    22660900.762    92792639.979                  
  20638835.203   108457710.017    20638840.172    84512663.259    20638840.000  
  23296672.523   122424759.308    23296679.957    95396044.852    23296679.242  
  20452688.438   107479645.301    20452693.875    83750423.651    20452693.754  
  21312893.461   112000047.523    21312896.664    87272812.888                  
  24263893.070   127507560.200    24263897.332    99356627.216                  
  23221056.883   122027415.471    23221065.980    95086423.508    23221066.414  
  23015442.781   120946864.228    23015450.781    94244480.347    23015450.480  
 22 01 08 01 01 17.0000000  0 12G01G06G07G10G13G14G15G17G19G21G24G30
  22071028.984   115984021.350    22071036.699    90377234.234    22071035.922  
  25382244.383   133384602.502    25382251.473   103936082.452    25382252.992  
  25110119.344   131954645.799    25110126.047   102821797.757    25110125.051  
  25812351.586   135644949.868    25812361.875   105697308.564    25812361.281  
  22661421.773   119086763.777    22661426.953    92794795.719                  
  20639087.266   108459037.379    20639092.910    84513697.567    20639092.418  
  23297039.852   122426686.710    23297046.617    95397546.722    23297046.105  
  20452580.727   107479079.352    20452586.027    83749982.655    20452585.813  
  21312379.313   111997347.302    21312383.078    87270708.819                  
  24264323.828   127509825.585    24264327.992    99358392.474                  
  23220453.242   122024243.821    23220462.266    95083952.094    23220462.598  
  23016090.797   120950272.798    23016099.289    94247136.375    23016099.066  
 22 01 08 01 01 18.0000000  0 12G01G06G07G10G13G14G15G17G19G21G24G30
  22071085.391   115984324.900    22071094.355    90377470.765    22071093.578  
  25381520.609   133380799.978    25381528.137   103933119.443    25381529.242  
  25110840.352   131958431.314    25110846.699   102824747.509    25110845.816  
  25812538.063   135645928.046    25812547.570   105698070.755    25812547.000  
  22661948.516   119089530.709    22661953.703    92796951.769                  
  20639340.219   108460365.144    20639345.762    84514732.186    20639345.438  
  23297406.391   122428614.654    23297413.621    95399049.015    23297413.375  
  20452473.023   107478513.939    20452478.094    83749542.074    20452478.258  
  21311865.242   111994647.514    21311869.379    87268605.089                  
  24264755.391   127512091.358    24264759.492    99360158.017                  
  23219849.359   122021072.460    23219858.922    95081480.898    23219859.180  
  23016740.039   120953681.640    23016747.793    94249792.612    23016747.469  
 22 01 08 01 01 19.0000000  0 12G01G06G07G10G13G14G15G17G19G21G24G30
  22071143.555   115984629.248    22071152.043    90377707.922    22071151.773  
  25380797.195   133376997.340    25380804.563   103930156.342    25380805.320  
  25111560.625   131962216.930    25111567.422   102827697.348    25111566.418  
  25812723.938   135646906.784    25812734.039   105698833.387    25812733.215  
  22662474.703   119092298.053    22662480.172    92799108.141                  
  20639593.039   108461693.301    20639598.621    84515767.116    20639598.359  
  23297773.813   122430543.107    23297780.266    95400551.711    23297780.148  
  20452365.742   107477949.098    20452370.867    83749101.939    20452370.945  
  21311351.922   111991948.207    21311355.668    87266501.730                  
  24265186.289   127514357.637    24265190.891    99361923.937                  
  23219245.523   122017901.447    23219255.656    95079009.980    23219255.770  
  23017388.500   120957090.752    23017396.707    94252449.063    23017396.512  
 22 01 08 01 01 20.0000000  0 12G01G06G07G10G13G14G15G17G19G21G24G30
  22071201.797   115984934.308    22071210.293    90377945.628    22071209.859  
  25380073.703   133373194.616    25380080.844   103927193.191    25380081.773  
  25112280.109   131966002.616    25112287.953   102830647.223    25112286.887  
  25812911.555   135647886.063    25812920.117   105699596.446    25812919.629  
  22663001.648   119095065.828    22663006.828    92801264.849                  
  20639845.617   108463021.835    20639851.172    84516802.342    20639850.676  
  23298140.695   122432472.059    23298147.027    95402054.788    23298146.949  
  20452258.695   107477384.784    20452263.672    83748662.211    20452263.570  
  21310838.320   111989249.347    21310842.020    87264398.727                  
  24265617.352   127516624.295    24265622.047    99363690.180                  
  23218642.969   122014730.723    23218652.465    95076539.288    23218652.199  
  23018037.648   120960500.134    23018045.594    94255105.724    23018045.465  
 22 01 08 01 01 21.0000000  0 12G01G06G07G10G13G14G15G17G19G21G24G30
  22071260.406   115985240.158    22071268.621    90378183.948    22071268.156  
  25379350.039   133369391.876    25379356.938   103924230.031    25379358.145  
  25113000.992   131969788.388    25113007.594   102833597.175    25113006.645  
  25813097.805   135648865.966    25813106.508   105700359.995    25813105.949  
  22663528.203   119097834.039    22663533.547    92803421.892                  
  20640098.195   108464350.770    20640104.320    84517837.875    20640103.871  
  23298507.242   122434401.560    23298514.402    95403558.301    23298514.324  
  20452151.313   107476821.034    20452156.266    83748222.925    20452156.223  
  21310324.719   111986550.966    21310328.754    87262296.098                  
  24266049.656   127518891.411    24266053.277    99365456.768                  
  23218039.844   122011560.369    23218049.055    95074068.881    23218048.832  
  23018686.195   120963909.809    23018694.523    94257762.613    23018694.363  
 22 01 08 01 01 22.0000000  0 12G01G06G07G10G13G14G15G17G19G21G24G30
  22071318.477   115985546.752    22071327.090    90378422.853    22071326.352  
  25378626.141   133365589.042    25378633.723   103921266.799    25378634.414  
  25113721.453   131973574.208    25113728.320   102836547.160    25113727.602  
  25813284.094   135649846.320    25813293.047   105701123.906    25813292.133  
  22664055.195   119100602.667    22664060.410    92805579.267                  
  20640351.461   108465680.067    20640357.250    84518873.692    20640356.820  
  23298875.609   122436331.586    23298881.816    95405062.217    23298881.461  
  20452044.180   107476257.831    20452049.215    83747784.064    20452049.043  
  21309811.891   111983853.022    21309815.109    87260193.804                  
  24266480.500   127521158.946    24266485.328    99367223.680                  
  23217435.883   122008390.279    23217445.645    95071598.683    23217445.051  
  23019335.133   120967319.775    23019343.004    94260419.730    23019343.059  
 22 01 08 01 01 23.0000000  0 12G01G06G07G10G13G14G15G17G19G21G24G30
  22071377.195   115985854.110    22071385.305    90378662.353    22071384.875  
  25377902.680   133361786.024    25377910.422   103918303.419    25377911.246  
  25114441.820   131977360.096    25114448.992   102839497.202    25114448.039  
  25813471.859   135650827.230    25813479.883   105701888.259    25813478.609  
  22664582.422   119103371.692    22664587.582    92807736.950                  
  20640603.977   108467009.744    20640610.262    84519909.803    20640610.078  
  23299242.414   122438262.101    23299249.008    95406566.509    23299249.168  
  20451936.742   107475695.158    20451941.691    83747345.623    20451941.535  
  21309298.305   111981155.541    21309302.027    87258091.871                  
  24266911.602   127523426.870    24266916.297    99368990.870                  
  23216833.039   122005220.498    23216842.684    95069128.728    23216842.102  
  23019984.109   120970729.917    23019992.699    94263076.985    23019992.406  
 22 01 08 01 01 24.0000000  0 12G01G06G07G10G13G14G15G17G19G21G24G30
  22071435.633   115986162.207    22071444.023    90378902.426    22071443.965  
  25377179.156   133357983.034    25377186.367   103915340.056    25377187.621  
  25115162.094   131981145.987    25115169.090   102842447.247    25115168.020  
  25813657.461   135651808.725    25813666.145   105702653.061    25813664.871  
  22665109.383   119106141.122    22665114.223    92809894.951                  
  20640857.672   108468339.826    20640863.438    84520946.228    20640863.379  
  23299609.594   122440193.125    23299616.438    95408071.204    23299616.496  
  20451830.430   107475133.047    20451835.363    83746907.615    20451835.262  
  21308785.195   111978458.494    21308788.539    87255990.275                  
  24267343.734   127525695.244    24267348.035    99370758.423                  
  23216229.523   122002051.054    23216239.816    95066659.036    23216239.316  
  23020633.234   120974140.419    23020641.074    94265734.523    23020640.746  
 22 01 08 01 01 25.0000000  0 12G01G06G07G10G13G14G15G17G19G21G24G30
  22071494.039   115986471.105    22071502.191    90379143.129    22071502.074  
  25376455.922   133354179.919    25376462.891   103912376.598    25376464.137  
  25115884.086   131984932.117    25115889.445   102845397.487    25115888.668  
  25813844.438   135652790.812    25813852.785   105703418.328    25813851.395  
  22665636.711   119108911.008    22665641.352    92812053.298                  
  20641111.320   108469670.312    20641116.723    84521982.972    20641116.273  
  23299977.125   122442124.724    23299983.652    95409576.345    23299984.176  
  20451722.953   107474571.511    20451728.516    83746470.055    20451728.141  
  21308271.828   111975761.943    21308275.703    87253889.068                  
  24267775.484   127527964.088    24267780.223    99372526.375                  
  23215626.656   121998881.931    23215636.430    95064189.595    23215635.832  
  23021282.094   120977551.211    23021290.039    94268392.283    23021289.660  
 22 01 08 01 01 26.0000000  0 12G01G06G07G10G13G14G15G17G19G21G24G30
  22071552.930   115986780.755    22071561.652    90379384.417    22071561.203  
  25375732.047   133350376.750    25375739.066   103909413.093    25375740.336  
  25116602.898   131988718.240    25116610.141   102848347.719    25116609.422  
  25814032.219   135653773.439    25814040.352   105704184.013    25814039.016  
  22666163.750   119111681.309    22666168.680    92814211.966                  
  20641364.109   108471001.171    20641369.629    84523020.007    20641369.383  
  23300344.594   122444056.800    23300351.293    95411081.858    23300351.594  
  20451616.711   107474010.519    20451621.746    83746032.919    20451621.613  
  21307758.867   111973065.836    21307762.242    87251788.207                  
  24268207.180   127530233.329    24268212.125    99374294.625                  
  23215023.648   121995713.171    23215033.648    95061720.436    23215032.980  
  23021930.938   120980962.247    23021939.020    94271050.234    23021938.992  
 22 01 08 01 01 27.0000000  0 12G01G06G07G10G13G14G15G17G19G21G24G30
  22071612.453   115987091.171    22071620.883    90379626.303    22071620.504  
  25375008.578   133346573.510    25375015.426   103906449.524    25375016.332  
  25117323.523   131992504.399    25117330.484   102851297.974    25117329.648  
  25814219.477   135654756.615    25814226.738   105704950.120    25814225.227  
  22666690.898   119114452.018    22666696.066    92816370.959                  
  20641617.633   108472332.448    20641623.113    84524057.366    20641622.996  
  23300713.266   122445989.380    23300719.184    95412587.766    23300719.711  
  20451509.617   107473450.088    20451514.582    83745596.218    20451514.340  
  21307245.906   111970370.209    21307249.781    87249687.724                  
  24268638.492   127532503.044    24268643.730    99376063.220                  
  23214420.438   121992544.678    23214430.766    95059251.482    23214430.211  
  23022580.508   120984373.592    23022588.266    94273708.420    23022588.102  
 22 01 08 01 01 28.0000000  0 12G01G06G07G10G13G14G15G17G19G21G24G30
  22071672.305   115987402.318    22071680.238    90379868.760    22071679.402  
  25374285.258   133342770.126    25374292.090   103903485.845    25374293.383  
  25118044.141   131996290.636    25118050.930   102854248.286    25118050.328  
  25814406.508   135655740.310    25814413.938   105705716.626    25814412.363  
  22667217.773   119117223.107    22667223.098    92818530.250                  
  20641870.688   108473664.048    20641876.309    84525094.975    20641875.836  
  23301081.148   122447922.464    23301087.391    95414094.070    23301087.785  
  20451403.156   107472890.149    20451408.152    83745159.901    20451408.125  
  21306733.055   111967674.994    21306736.656    87247587.550                  
  24269070.594   127534773.091    24269075.898    99377832.073                  
  23213817.906   121989376.490    23213827.578    95056782.766    23213827.250  
  23023229.695   120987785.137    23023237.930    94276366.766    23023237.539  
 22 01 08 01 01 29.0000000  0 12G01G06G07G10G13G14G15G17G19G21G24G30
  22071730.711   115987714.260    22071739.742    90380111.829    22071739.055  
  25373561.500   133338966.730    25373567.926   103900522.160    25373568.672  
  25118764.367   132000076.994    25118771.488   102857198.689    25118771.004  
  25814594.703   135656724.590    25814601.633   105706483.587    25814600.000  
  22667745.164   119119994.689    22667750.996    92820689.923                  
  20642124.125   108474996.087    20642129.820    84526132.926    20642129.660  
  23301448.445   122449856.153    23301455.020    95415600.844    23301455.332  
  20451296.828   107472330.844    20451301.551    83744724.076    20451301.449  
  21306219.883   111964980.320    21306224.012    87245487.807                  
  24269502.188   127537043.690    24269507.645    99379601.379                  
  23213214.789   121986208.665    23213225.023    95054314.335    23213224.484  
  23023878.984   120991197.030    23023887.008    94279025.384    23023886.344  
 22 01 08 01 01 30.0000000  0 12G01G06G07G10G13G14G15G17G19G21G24G30
  22071790.438   115988026.940    22071799.098    90380355.481    22071798.066  
  25372837.602   133335163.191    25372844.250   103897558.362    25372844.895  
  25119484.945   132003863.393    25119492.094   102860149.129    25119491.668  
  25814781.586   135657709.435    25814788.535   105707250.989    25814787.199  
  22668272.914   119122766.648    22668278.539    92822849.891                  
  20642378.148   108476328.479    20642383.492    84527171.155    20642383.109  
  23301817.336   122451790.274    23301823.242    95417107.953    23301823.082  
  20451190.688   107471772.033    20451195.680    83744288.639    20451195.371  
  21305707.211   111962286.001    21305710.977    87243388.337                  
  24269935.313   127539314.653    24269939.543    99381370.947                  
  23212612.242   121983041.107    23212622.195    95051846.107    23212621.684  
  23024528.133   120994609.168    23024536.527    94281684.191    23024535.844  
 22 01 08 01 01 31.0000000  0 12G01G06G07G10G13G14G15G17G19G21G24G30
  22071849.617   115988340.393    22071858.445    90380599.726    22071857.531  
  25372113.313   133331359.591    25372120.117   103894594.510    25372120.418  
  25120206.242   132007649.874    25120212.813   102863099.623    25120212.566  
  25814969.313   135658694.753    25814976.203   105708018.766    25814975.102  
  22668800.438   119125538.993    22668805.863    92825010.158                  
  20642631.195   108477661.271    20642636.992    84528209.693    20642636.680  
  23302184.922   122453724.934    23302191.605    95418615.477    23302191.191  
  20451084.313   107471213.801    20451089.234    83743853.656    20451089.223  
  21305194.891   111959592.171    21305198.168    87241289.250                  
  24270367.750   127541586.055    24270371.938    99383140.872                  
  23212009.102   121979873.915    23212019.305    95049378.171    23212019.125  
  23025177.594   120998021.565    23025185.949    94284343.201    23025185.703  
 22 01 08 01 01 32.0000000  0 12G01G06G07G10G13G14G15G17G19G21G24G30
  22071909.648   115988654.623    22071918.355    90380844.582    22071917.707  
  25371389.094   133327555.951    25371396.672   103891630.637    25371397.238  
  25120926.195   132011436.420    25120933.465   102866050.183    25120933.039  
  25815155.820   135659680.751    25815163.742   105708787.083    25815162.344  
  22669328.547   119128311.864    22669333.535    92827170.841                  
  20642884.992   108478994.490    20642890.523    84529248.562    20642890.207  
  23302552.961   122455660.157    23302560.371    95420123.444    23302559.832  
  20450978.000   107470656.147    20450983.324    83743419.120    20450983.191  
  21304682.258   111956898.874    21304685.840    87239190.581                  
  24270799.859   127543857.942    24270804.656    99384911.188                  
  23211406.555   121976707.002    23211416.750    95046910.449    23211416.516  
  23025827.008   121001434.278    23025835.313    94287002.458    23025835.168  
 22 01 08 01 01 33.0000000  0 12G01G06G07G10G13G14G15G17G19G21G24G30
  22071970.117   115988969.625    22071978.563    90381090.039    22071977.926  
  25370665.109   133323752.188    25370672.516   103888666.664    25370673.195  
  25121646.227   132015223.018    25121654.008   102869000.785    25121653.289  
  25815343.844   135660667.220    25815351.414   105709555.762    25815350.133  
  22669856.117   119131085.081    22669861.090    92829331.783                  
  20643139.000   108480328.067    20643144.824    84530287.719    20643144.543  
  23302921.906   122457595.857    23302928.348    95421631.777    23302927.988  
  20450872.359   107470099.028    20450877.102    83742985.000    20450877.348  
  21304170.086   111954205.991    21304173.602    87237092.230                  
  24271232.461   127546130.177    24271237.223    99386681.738                  
  23210804.891   121973540.428    23210813.859    95044442.993    23210813.602  
  23026476.430   121004847.239    23026484.648    94289661.909    23026484.582  
 22 01 08 01 01 34.0000000  0 12G01G06G07G10G13G14G15G17G19G21G24G30
  22072029.805   115989285.388    22072038.414    90381336.087    22072037.887  
  25369941.508   133319948.400    25369948.922   103885702.669    25369949.813  
  25122367.133   132019009.735    25122374.695   102871951.474    25122374.152  
  25815532.586   135661654.259    25815539.281   105710324.887    25815537.828  
  22670383.680   119133858.741    22670388.852    92831493.073                  
  20643392.617   108481662.043    20643398.293    84531327.181    20643398.016  
  23303290.344   122459532.115    23303297.125    95423140.544    23303297.121  
  20450766.266   107469542.465    20450771.445    83742551.319    20450771.094  
  21303657.828   111951513.554    21303661.176    87234994.225                  
  24271665.344   127548402.916    24271669.570    99388452.704                  
  23210202.375   121970374.175    23210211.324    95041975.789    23210211.152  
  23027126.016   121008260.497    23027134.469    94292321.589    23027134.305  
 22 01 08 01 01 35.0000000  0 12G01G06G07G10G13G14G15G17G19G21G24G30
  22072090.445   115989601.876    22072098.840    90381582.703    22072098.523  
  25369216.789   133316144.513    25369224.750   103882738.598    25369225.910  
  25123087.789   132022796.487    25123095.113   102874902.193    25123094.629  
  25815720.031   135662641.838    25815727.203   105711094.429    25815726.039  
  22670911.039   119136632.791    22670916.715    92833654.677                  
  20643646.570   108482996.382    20643652.305    84532366.922    20643651.996  
  23303658.750   122461468.853    23303665.152    95424649.687    23303665.430  
  20450660.516   107468986.450    20450665.758    83742118.058    20450665.410  
  21303144.813   111948821.607    21303149.020    87232896.607                  
  24272097.742   127550676.039    24272101.980    99390223.981                  
  23209599.086   121967208.261    23209608.766    95039508.837    23209608.184  
  23027775.484   121011674.025    23027783.594    94294981.481    23027783.551  
 22 01 08 01 01 36.0000000  0 12G01G06G07G10G13G14G15G17G19G21G24G30
  22072149.945   115989919.141    22072159.137    90381829.918    22072158.512  
  25368492.430   133312340.492    25368501.160   103879774.414    25368502.238  
  25123808.016   132026583.323    25123815.758   102877852.977    25123815.273  
  25815907.617   135663630.048    25815915.246   105711864.453    25815914.023  
  22671439.195   119139407.298    22671444.621    92835816.634                  
  20643900.891   108484331.124    20643906.773    84533406.985    20643906.363  
  23304027.406   122463406.135    23304033.848    95426159.262    23304034.180  
  20450554.852   107468430.988    20450559.918    83741685.231    20450559.734  
  21302632.508   111946130.107    21302636.672    87230799.334                  
  24272529.602   127552949.627    24272534.594    99391995.599                  
  23208997.141   121964042.620    23209006.246    95037042.096    23209005.723  
  23028425.117   121015087.806    23028433.680    94297641.572    23028433.445  
 22 01 08 01 01 37.0000000  0 12G01G06G07G10G13G14G15G17G19G21G24G30
  22072210.984   115990237.176    22072220.031    90382077.739    22072219.340  
  25367769.313   133308536.465    25367777.340   103876810.241    25367778.391  
  25124528.781   132030370.245    25124536.215   102880803.823    25124535.672  
  25816095.773   135664618.738    25816103.582   105712634.850    25816102.418  
  22671967.352   119142182.211    22671972.590    92837978.901                  
  20644154.438   108485666.257    20644160.094    84534447.344    20644159.934  
  23304395.969   122465343.943    23304402.648    95427669.244    23304402.531  
  20450449.055   107467876.081    20450454.203    83741252.835    20450454.008  
  21302120.648   111943439.065    21302124.480    87228702.417                  
  24272962.328   127555223.582    24272967.500    99393767.505                  
  23208394.672   121960877.369    23208404.012    95034575.669    23208403.563  
  23029075.016   121018501.880    23029082.813    94300301.889    23029082.922  
 22 01 08 01 01 38.0000000  0 12G01G06G07G10G13G14G15G17G19G21G24G30
  22072271.750   115990555.959    22072280.609    90382326.140    22072279.754  
  25367044.781   133304732.305    25367053.059   103873845.954    25367054.121  
  25125249.883   132034157.212    25125256.633   102883754.711    25125256.324  
  25816283.641   135665607.979    25816291.582   105713405.679    25816290.305  
  22672495.211   119144957.526    22672500.758    92840141.481                  
  20644408.734   108487001.772    20644414.430    84535488.011    20644414.180  
  23304764.766   122467282.237    23304771.211    95429179.604    23304771.344  
  20450343.742   107467321.705    20450348.441    83740820.851    20450348.305  
  21301609.305   111940748.465    21301612.449    87226605.853                  
  24273395.688   127557498.016    24273400.379    99395539.784                  
  23207792.016   121957712.365    23207801.844    95032109.430    23207801.863  
  23029724.727   121021916.207    23029732.906    94302962.405    23029732.840  
 22 01 08 01 01 39.0000000  0 12G01G06G07G10G13G14G15G17G19G21G24G30
  22072332.086   115990875.539    22072341.234    90382575.165    22072340.344  
  25366321.602   133300928.103    25366329.301   103870881.635    25366330.160  
  25125970.773   132037944.289    25125977.359   102886705.672    25125976.934  
  25816472.195   135666597.766    25816480.094   105714176.941    25816478.641  
  22673023.414   119147733.287    22673029.328    92842304.408                  
  20644663.141   108488337.686    20644668.484    84536528.981    20644668.211  
  23305134.281   122469221.060    23305140.793    95430690.379    23305140.762  
  20450238.383   107466767.906    20450243.156    83740389.326    20450242.883  
  21301096.813   111938058.353    21301100.344    87224509.660                  
  24273828.945   127559772.882    24273832.914    99397312.409                  
  23207190.055   121954547.715    23207199.680    95029643.475    23207199.688  
  23030374.633   121025330.819    23030382.586    94305623.141    23030382.594  
 22 01 08 01 01 40.0000000  0 12G01G06G07G10G13G14G15G17G19G21G24G30
  22072393.281   115991195.832    22072402.168    90382824.739    22072401.535  
  25365597.844   133297123.802    25365605.348   103867917.247    25365606.516  
  25126691.383   132041731.396    25126698.043   102889656.656    25126697.559  
  25816660.180   135667588.100    25816668.793   105714948.640    25816667.633  
  22673551.563   119150509.412    22673557.102    92844467.619                  
  20644917.445   108489673.958    20644922.797    84537570.233    20644922.406  
  23305502.875   122471160.399    23305509.602    95432201.549    23305509.383  
  20450132.789   107466214.630    20450138.004    83739958.196    20450137.910  
  21300585.344   111935368.667    21300588.410    87222413.794                  
  24274261.930   127562048.137    24274266.113    99399085.361                  
  23206588.609   121951383.370    23206597.566    95027177.753    23206597.332  
  23031024.430   121028745.694    23031032.125    94308284.077    23031032.016  
 22 01 08 01 01 41.0000000  0 12G01G06G07G10G13G14G15G17G19G21G24G30
  22072454.875   115991516.883    22072463.023    90383074.913    22072462.559  
  25364873.672   133293319.379    25364881.020   103864952.766    25364882.023  
  25127412.656   132045518.531    25127418.207   102892607.662    25127417.785  
  25816849.742   135668578.985    25816857.395   105715720.777    25816856.172  
  22674080.211   119153285.982    22674085.590    92846631.178                  
  20645172.070   108491010.624    20645177.848    84538611.789    20645177.508  
  23305871.688   122473100.254    23305878.852    95433713.124    23305878.734  
  20450027.656   107465661.918    20450032.813    83739527.516    20450032.754  
  21300073.063   111932679.440    21300076.672    87220318.296                  
  24274694.383   127564323.844    24274698.656    99400858.649                  
  23205986.477   121948219.301    23205995.449    95024712.243    23205995.211  
  23031674.195   121032160.838    23031681.969    94310945.230    23031682.059  
 22 01 08 01 01 42.0000000  0 12G01G06G07G10G13G14G15G17G19G21G24G30
  22072515.867   115991838.730    22072524.352    90383325.698    22072523.941  
  25364149.805   133289514.941    25364157.441   103861988.285    25364158.496  
  25128132.891   132049305.811    25128139.270   102895558.787    25128138.727  
  25817037.227   135669570.439    25817046.000   105716493.362    25817045.012  
  22674609.047   119156062.976    22674614.598    92848795.071                  
  20645426.336   108492347.677    20645431.859    84539653.650    20645431.352  
  23306241.602   122475040.623    23306248.090    95435225.101    23306247.840  
  20449922.648   107465109.758    20449927.484    83739097.262    20449927.465  
  21299561.852   111929990.706    21299565.262    87218223.180                  
  24275127.766   127566599.993    24275131.813    99402632.287                  
  23205384.047   121945055.601    23205393.230    95022247.019    23205392.805  
  23032324.258   121035576.273    23032331.961    94313606.609    23032332.180  
 22 01 08 01 01 43.0000000  0 12G01G06G07G10G13G14G15G17G19G21G24G30
  22072577.656   115992161.335    22072585.770    90383577.083    22072585.410  
  25363425.430   133285710.351    25363433.371   103859023.672    25363434.160  
  25128853.695   132053093.130    25128859.961   102898509.951    25128859.418  
  25817225.172   135670562.460    25817234.574   105717266.379    25817234.055  
  22675137.234   119158840.375    22675142.734    92850959.268                  
  20645680.781   108493685.120    20645686.152    84540695.812    20645685.914  
  23306610.609   122476981.520    23306617.820    95436737.488    23306617.590  
  20449817.711   107464558.153    20449822.609    83738667.436    20449822.340  
  21299050.234   111927302.422    21299053.770    87216128.416                  
  24275561.523   127568876.545    24275565.543    99404406.223                  
  23204782.039   121941892.206    23204791.348    95019782.034    23204790.730  
  23032974.109   121038991.976    23032982.352    94316268.195    23032982.504  
 22 01 08 01 01 44.0000000  0 12G01G06G07G10G13G14G15G17G19G21G24G30
  22072638.930   115992484.703    22072647.316    90383829.055    22072646.527  
  25362702.484   133281905.741    25362709.191   103856059.051    25362710.090  
  25129574.781   132056880.554    25129580.688   102901461.190    25129580.148  
  25817415.047   135671555.045    25817423.180   105718039.829    25817422.832  
  22675666.289   119161618.212    22675671.699    92853123.828                  
  20645935.141   108495022.956    20645941.063    84541738.280    20645940.867  
  23306980.328   122478922.945    23306986.688    95438250.284    23306986.188  
  20449712.727   107464007.111    20449717.805    83738238.057    20449717.738  
  21298538.734   111924614.590    21298542.340    87214034.003                  
  24275994.141   127571153.550    24275998.762    99406180.511                  
  23204179.766   121938729.170    23204189.359    95017317.325    23204189.004  
  23033624.266   121042407.980    23033632.184    94318930.016    23033631.789  
 22 01 08 01 01 45.0000000  0 12G01G06G07G10G13G14G15G17G19G21G24G30
  22072701.133   115992808.829    22072709.664    90384081.620    22072709.020  
  25361978.742   133278101.074    25361985.078   103853094.364    25361986.270  
  25130294.047   132060667.978    25130301.543   102904412.433    25130301.117  
  25817603.992   135672548.099    25817612.441   105718813.637    25817612.477  
  22676195.383   119164396.447    22676200.355    92855288.694                  
  20646189.984   108496361.170    20646195.500    84542781.049    20646195.484  
  23307349.531   122480864.897    23307356.566    95439763.493    23307355.973  
  20449608.336   107463456.619    20449612.793    83737809.100    20449612.867  
  21298027.258   111921927.240    21298030.781    87211939.958                  
  24276428.078   127573430.981    24276431.637    99407955.122                  
  23203578.133   121935566.391    23203587.246    95014852.828    23203587.063  
  23034274.484   121045824.232    23034282.328    94321592.031    23034282.176  
 22 01 08 01 01 46.0000000  0 12G01G06G07G10G13G14G15G17G19G21G24G30
  22072762.156   115993133.728    22072770.555    90384334.786    22072769.895  
  25361254.820   133274296.277    25361260.801   103850129.582    25361262.270  
  25131015.070   132064455.464    25131021.953   102907363.727    25131021.820  
  25817793.586   135673541.820    25817801.484   105719587.964    25817801.336  
  22676723.586   119167175.121    22676729.164    92857453.894                  
  20646444.727   108497699.784    20646450.582    84543824.119    20646450.398  
  23307719.055   122482807.353    23307726.020    95441277.092    23307725.773  
  20449503.141   107462906.697    20449508.602    83737380.590    20449508.398  
  21297515.961   111919240.350    21297519.672    87209846.282                  
  24276860.820   127575708.836    24276865.598    99409730.086                  
  23202976.242   121932403.999    23202985.496    95012388.629    23202985.344  
  23034924.578   121049240.770    23034932.242    94324254.266    23034931.961  
 22 01 08 01 01 47.0000000  0 12G01G06G07G10G13G14G15G17G19G21G24G30
  22072824.648   115993459.343    22072833.043    90384588.513    22072832.359  
  25360530.156   133270491.395    25360537.285   103847164.737    25360538.598  
  25131736.578   132068243.044    25131742.973   102910315.091    25131742.664  
  25817983.109   135674536.028    25817990.898   105720362.651    25817990.691  
  22677252.086   119169954.180    22677257.859    92859619.388                  
  20646699.352   108499038.768    20646704.984    84544867.489    20646704.789  
  23308089.742   122484750.275    23308095.754    95442791.056    23308095.453  
  20449399.102   107462357.280    20449403.984    83736952.472    20449403.898  
  21297005.000   111916553.889    21297008.543    87207752.941                  
  24277294.289   127577987.121    24277299.168    99411505.367                  
  23202374.641   121929241.877    23202383.457    95009924.640    23202383.820  
  23035574.922   121052657.561    23035582.426    94326916.703    23035582.207  
 22 01 08 01 01 48.0000000  0 12G01G06G07G10G13G14G15G17G19G21G24G30
  22072886.266   115993785.759    22072894.895    90384842.867    22072894.320  
  25359805.625   133266686.461    25359813.355   103844199.859    25359814.504  
  25132456.898   132072030.750    25132463.480   102913266.554    25132463.113  
  25818172.320   135675530.841    25818179.992   105721137.829    25818179.703  
  22677781.203   119172733.694    22677787.051    92861785.242                  
  20646953.906   108500378.149    20646959.781    84545911.157    20646959.445  
  23308459.289   122486693.802    23308465.461    95444305.493    23308465.387  
  20449294.602   107461808.446    20449299.570    83736524.807    20449299.508  
  21296494.008   111913867.929    21296497.113    87205659.989                  
  24277727.797   127580265.828    24277732.801    99413280.985                  
  23201772.555   121926080.081    23201782.141    95007460.904    23201782.480  
  23036224.953   121056074.640    23036233.129    94329579.359    23036232.961  
 22 01 08 01 01 49.0000000  0 12G01G06G07G10G13G14G15G17G19G21G24G30
  22072949.023   115994112.885    22072957.277    90385097.768    22072956.602  
  25359081.391   133262881.400    25359089.109   103841234.889    25359090.215  
  25133177.766   132075818.389    25133184.684   102916217.956    25133184.609  
  25818362.102   135676526.125    25818369.867   105721913.389    25818369.688  
  22678310.430   119175513.583    22678316.172    92863951.390                  
  20647209.242   108501717.894    20647214.684    84546955.114    20647214.578  
  23308829.406   122488637.740    23308835.156    95445820.249    23308835.566  
  20449190.266   107461260.118    20449195.172    83736097.543    20449195.039  
  21295982.500   111911182.385    21295986.301    87203567.356                  
  24278160.906   127582544.914    24278166.879    99415056.893                  
  23201171.844   121922918.588    23201180.336    95004997.404    23201180.625  
  23036875.188   121059491.950    23036883.535    94332242.203    23036883.188  
 22 01 08 01 01 50.0000000  0 12G01G06G07G10G13G14G15G17G19G21G24G30
  22073011.414   115994440.831    22073019.711    90385353.313    22073018.984  
  25358358.477   133259076.329    25358365.035   103838269.903    25358366.039  
  25133898.672   132079606.210    25133905.359   102919169.510    25133905.344  
  25818551.695   135677521.980    25818559.590   105722689.399    25818559.480  
  22678839.273   119178293.937    22678844.840    92866117.895                  
  20647464.367   108503058.058    20647469.820    84547999.395    20647469.371  
  23309198.445   122490582.246    23309205.617    95447335.448    23309206.008  
  20449086.070   107460712.372    20449090.770    83735670.730    20449090.609  
  21295471.813   111908497.320    21295475.566    87201475.099                  
  24278595.156   127584824.524    24278600.559    99416833.217                  
  23200569.961   121919757.434    23200578.664    95002534.165    23200578.922  
  23037525.086   121062909.598    23037533.676    94334905.304    23037533.297  
 22 01 08 01 01 51.0000000  0 12G01G06G07G10G13G14G15G17G19G21G24G30
  22073073.391   115994769.496    22073082.148    90385609.419    22073081.324  
  25357634.016   133255271.067    25357640.832   103835304.769    25357642.199  
  25134619.320   132083394.046    25134625.934   102922121.068    25134626.035  
  25818741.328   135678518.348    25818748.813   105723465.807    25818748.508  
  22679368.953   119181074.648    22679373.625    92868284.683                  
  20647719.094   108504398.565    20647725.305    84549043.946    20647724.992  
  23309569.063   122492527.265    23309575.398    95448851.047    23309575.809  
  20448981.984   107460165.149    20448986.684    83735244.322    20448986.582  
  21294961.148   111905812.712    21294964.297    87199383.195                  
  24279028.758   127587104.487    24279034.414    99418609.800                  
  23199968.500   121916596.618    23199977.242    95000071.194    23199977.527  
  23038175.641   121066327.466    23038183.965    94337568.572    23038183.617  
 22 01 08 01 01 52.0000000  0 12G01G06G07G10G13G14G15G17G19G21G24G30
  22073136.398   115995098.974    22073144.781    90385866.156    22073143.965  
  25356909.703   133251465.865    25356916.934   103832339.684    25356918.023  
  25135340.070   132087182.001    25135346.711   102925072.719    25135346.695  
  25818931.555   135679515.347    25818939.070   105724242.704    25818938.613  
  22679897.953   119183855.817    22679903.023    92870451.823                  
  20647974.617   108505739.500    20647980.227    84550088.836    20647980.406  
  23309939.281   122494472.807    23309945.379    95450367.055    23309945.793  
  20448877.461   107459618.546    20448882.590    83734818.398    20448882.488  
  21294450.227   111903128.589    21294453.465    87197291.672                  
  24279462.547   127589384.882    24279468.000    99420386.706                  
  23199366.242   121913436.099    23199376.051    94997608.455    23199375.797  
  23038825.977   121069745.661    23038834.688    94340232.102    23038834.453  
 22 01 08 01 01 53.0000000  0 12G01G06G07G10G13G14G15G17G19G21G24G30
  22073198.977   115995429.146    22073207.895    90386123.434    22073206.734  
  25356185.594   133247660.465    25356192.516   103829374.435    25356193.836  
  25136061.945   132090969.936    25136067.715   102928024.360    25136067.641  
  25819121.523   135680512.903    25819128.633   105725020.025    25819127.949  
  22680427.086   119186637.362    22680432.828    92872619.264                  
  20648229.492   108507080.758    20648235.035    84551133.973    20648234.961  
  23310309.281   122496418.833    23310315.836    95451883.439    23310316.191  
  20448773.898   107459072.387    20448778.680    83734392.822    20448778.645  
  21293939.547   111900444.865    21293943.164    87195200.458                  
  24279896.953   127591665.790    24279901.906    99422164.070                  
  23198765.992   121910275.870    23198774.574    94995145.942    23198774.547  
  23039476.594   121073164.058    23039484.879    94342895.788    23039484.535  
 22 01 08 01 01 54.0000000  0 12G01G06G07G10G13G14G15G17G19G21G24G30
  22073261.945   115995760.099    22073270.449    90386381.319    22073269.445  
  25355461.234   133243855.041    25355468.445   103826409.169    25355469.527  
  25136782.641   132094758.019    25136788.262   102930976.115    25136788.074  
  25819310.656   135681510.930    25819318.926   105725797.705    25819318.063  
  22680957.289   119189419.348    22680961.910    92874787.039                  
  20648485.258   108508422.438    20648490.215    84552179.439    20648489.961  
  23310679.820   122498365.381    23310686.316    95453400.232    23310686.648  
  20448670.047   107458526.814    20448674.883    83733967.701    20448675.066  
  21293428.703   111897761.651    21293432.316    87193109.639                  
  24280331.305   127593947.034    24280336.371    99423941.649                  
  23198164.383   121907115.978    23198173.590    94992683.684    23198173.418  
  23040127.617   121076582.757    23040135.715    94345559.707    23040135.367  
 22 01 08 01 01 55.0000000  0 12G01G06G07G10G13G14G15G17G19G21G24G30
  22073325.047   115996091.833    22073334.121    90386639.814    22073333.453  
  25354737.703   133240049.546    25354744.172   103823443.846    25354745.070  
  25137503.469   132098546.152    25137509.070   102933927.910    25137508.703  
  25819501.148   135682509.545    25819509.148   105726575.843    25819508.094  
  22681486.094   119192201.762    22681491.457    92876955.153                  
  20648740.203   108509764.518    20648746.156    84553225.217    20648745.887  
  23311050.555   122500312.473    23311056.844    95454917.444    23311057.234  
  20448566.117   107457981.842    20448570.949    83733543.047    20448570.742  
  21292918.266   111895078.883    21292921.496    87191019.177                  
  24280765.727   127596228.747    24280770.297    99425719.595                  
  23197563.586   121903956.445    23197572.250    94990221.720    23197572.180  
  23040777.953   121080001.760    23040785.895    94348223.862    23040785.883  
 22 01 08 01 01 56.0000000  0 12G01G06G07G10G13G14G15G17G19G21G24G30
  22073388.828   115996424.296    22073397.012    90386898.873    22073396.563  
  25354012.258   133236243.939    25354020.516   103820478.438    25354021.266  
  25138223.977   132102334.327    25138230.289   102936879.738    25138229.867  
  25819691.219   135683508.694    25819699.238   105727354.400    25819698.090  
  22682015.156   119194984.549    22682021.148    92879123.562                  
  20648995.969   108511106.956    20649001.512    84554271.269    20649001.207  
  23311420.828   122502260.032    23311427.434    95456435.024    23311427.461  
  20448462.609   107457437.354    20448467.930    83733118.773    20448467.688  
  21292408.117   111892396.554    21292411.703    87188929.048                  
  24281199.961   127598510.857    24281204.496    99427497.862                  
  23196961.336   121900797.167    23196970.957    94987759.940    23196971.066  
  23041428.211   121083420.940    23041436.801    94350888.154    23041436.660  
 22 01 08 01 01 57.0000000  0 12G01G06G07G10G13G14G15G17G19G21G24G30
  22073452.188   115996757.582    22073460.594    90387158.577    22073459.758  
  25353287.961   133232438.313    25353296.645   103817513.012    25353297.352  
  25138944.164   132106122.592    25138951.434   102939831.640    25138951.066  
  25819881.578   135684508.511    25819889.016   105728133.486    25819887.957  
  22682544.570   119197767.819    22682550.426    92881292.346                  
  20649251.172   108512449.841    20649257.133    84555317.673    20649256.785  
  23311791.781   122504208.138    23311798.160    95457953.038    23311798.598  
  20448358.945   107456893.484    20448364.441    83732694.976    20448364.418  
  21291897.141   111889714.754    21291901.074    87186839.337                  
  24281634.320   127600793.455    24281639.430    99429276.505                  
  23196361.141   121897638.283    23196369.969    94985298.472    23196369.914  
  23042079.273   121086840.521    23042087.484    94353552.761    23042087.215  
 22 01 08 01 01 58.0000000  0 12G01G06G07G10G13G14G15G17G19G21G24G30
  22073516.047   115997091.576    22073523.828    90387418.832    22073523.379  
  25352564.172   133228632.564    25352572.414   103814547.487    25352573.125  
  25139665.711   132109910.973    25139671.859   102942783.617    25139671.434  
  25820072.469   135685508.804    25820079.660   105728912.940    25820078.473  
  22683074.398   119200551.458    22683080.117    92883461.414                  
  20649507.063   108513793.047    20649512.613    84556364.328    20649512.160  
  23312162.992   122506156.775    23312169.043    95459471.459    23312169.531  
  20448255.289   107456350.129    20448260.750    83732271.580    20448260.523  
  21291387.438   111887033.349    21291391.023    87184749.931                  
  24282069.750   127603076.390    24282073.613    99431055.409                  
  23195759.844   121894479.647    23195769.020    94982837.195    23195769.414  
  23042730.164   121090260.278    23042738.441    94356217.510    23042738.219  
 22 01 08 01 01 59.0000000  0 12G01G06G07G10G13G14G15G17G19G21G24G30
  22073579.375   115997426.303    22073587.648    90387679.660    22073587.055  
  25351839.531   133224826.750    25351847.871   103811581.922    25351848.988  
  25140386.891   132113699.337    25140392.781   102945735.574    25140392.648  
  25820262.242   135686509.598    25820270.223   105729692.769    25820268.852  
  22683604.023   119203335.495    22683610.301    92885630.777                  
  20649762.820   108515136.650    20649768.387    84557411.289    20649768.168  
  23312534.023   122508105.936    23312540.316    95460990.283    23312540.133  
  20448152.313   107455807.290    20448157.469    83731848.587    20448157.301  
  21290877.102   111884352.402    21290880.586    87182660.884                  
  24282504.086   127605359.797    24282507.965    99432834.708                  
  23195158.813   121891321.338    23195167.441    94980376.174    23195167.629  
  23043380.453   121093680.308    23043389.102    94358882.463    23043388.676  
 22 01 08 01 02 00.0000000  0 12G01G06G07G10G13G14G15G17G19G21G24G30
  22073642.320   115997761.833    22073651.395    90387941.112    22073650.535  
  25351115.727   133221020.819    25351123.656   103808616.254    25351124.664  
  25141107.375   132117487.811    25141113.422   102948687.622    25141113.352  
  25820453.117   135687511.026    25820460.559   105730473.082    25820459.387  
  22684134.313   119206119.965    22684139.625    92887800.495                  
  20650018.242   108516480.612    20650024.039    84558458.536    20650023.789  
  23312904.148   122510055.571    23312911.066    95462509.476    23312910.633  
  20448049.273   107455265.027    20448054.387    83731426.050    20448054.000  
  21290367.195   111881671.926    21290370.785    87180572.204                  
  24282939.164   127607643.616    24282942.441    99434614.311                  
  23194557.383   121888163.396    23194566.539    94977915.447    23194566.578  
  23044031.445   121097100.641    23044039.844    94361547.658    23044039.691  
 22 01 08 01 02 01.0000000  0 12G01G06G07G10G13G14G15G17G19G21G24G30
  22073706.797   115998098.122    22073715.660    90388203.157    22073715.000  
  25350392.008   133217214.865    25350399.555   103805650.571    25350400.348  
  25141829.352   132121276.376    25141834.602   102951639.752    25141834.586  
  25820644.070   135688512.946    25820651.363   105731253.784    25820650.555  
  22684664.977   119208904.857    22684670.461    92889970.550                  
  20650274.531   108517825.022    20650279.676    84559506.127    20650279.469  
  23313275.727   122512005.735    23313282.301    95464029.081    23313282.184  
  20447945.930   107454723.331    20447950.977    83731003.949    20447950.719  
  21289857.031   111878991.934    21289860.652    87178483.898                  
  24283372.680   127609927.907    24283377.141    99436394.276                  
  23193957.523   121885005.756    23193965.730    94975454.948    23193965.820  
  23044682.656   121100521.236    23044690.875    94364213.061    23044690.582  
 22 01 08 01 02 02.0000000  0 12G01G06G07G10G13G14G15G17G19G21G24G30
  22073770.852   115998435.180    22073779.859    90388465.796    22073778.973  
  25349666.422   133213408.812    25349675.180   103802684.822    25349675.609  
  25142549.922   132125064.991    25142555.563   102954591.924    25142555.664  
  25820834.891   135689515.411    25820842.109   105732034.934    25820841.348  
  22685194.711   119211690.148    22685199.867    92892140.904                  
  20650530.242   108519169.787    20650535.754    84560553.993    20650535.328  
  23313646.891   122513956.458    23313653.430    95465549.123    23313653.141  
  20447843.375   107454182.183    20447847.863    83730582.277    20447847.547  
  21289347.125   111876312.401    21289350.570    87176395.955                  
  24283806.875   127612212.572    24283811.918    99438174.528                  
  23193356.164   121881848.472    23193364.992    94972994.723    23193365.055  
  23045333.477   121103942.135    23045341.492    94366878.698    23045341.117  
 22 01 08 01 02 03.0000000  0 12G01G06G07G10G13G14G15G17G19G21G24G30
  22073835.367   115998773.016    22073844.031    90388729.047    22073843.152  
  25348942.602   133209602.699    25348950.832   103799719.017    25348951.266  
  25143269.617   132128853.670    25143276.180   102957544.143    25143276.398  
  25821025.484   135690518.469    25821033.012   105732816.548    25821032.480  
  22685724.516   119214475.892    22685729.852    92894311.615                  
  20650786.242   108520514.952    20650791.848    84561602.180    20650791.195  
  23314018.672   122515907.669    23314024.207    95467069.550    23314024.191  
  20447740.336   107453641.592    20447745.395    83730161.031    20447745.270  
  21288837.039   111873633.330    21288841.055    87174308.364                  
  24284243.125   127614497.699    24284246.559    99439955.170                  
  23192755.930   121878691.476    23192764.113    94970534.727    23192764.121  
  23045984.578   121107363.287    23045992.727    94369544.529    23045992.582  
 22 01 08 01 02 04.0000000  0 12G01G06G07G10G13G14G15G17G19G21G24G30
  22073900.461   115999111.583    22073908.359    90388992.862    22073907.617  
  25348217.922   133205796.480    25348226.551   103796753.132    25348227.234  
  25143991.070   132132642.456    25143997.199   102960496.440    25143997.477  
  25821215.961   135691522.099    25821224.285   105733598.596    25821223.820  
  22686254.547   119217262.022    22686260.047    92896482.629                  
  20651042.484   108521860.498    20651047.883    84562650.654    20651047.879  
  23314390.070   122517859.404    23314396.156    95468590.380    23314396.316  
  20447637.633   107453101.530    20447642.277    83729740.207    20447642.145  
  21288327.469   111870954.713    21288331.395    87172221.134                  
  24284678.203   127616783.249    24284681.535    99441736.112                  
  23192154.086   121875534.768    23192163.590    94968074.951    23192163.617  
  23046635.391   121110784.713    23046643.582    94372210.568    23046643.414  
 22 01 08 01 02 05.0000000  0 12G01G06G07G10G13G14G15G17G19G21G24G30
  22073964.344   115999450.911    22073972.664    90389257.275    22073972.090  
  25347493.586   133201990.205    25347502.188   103793787.201    25347502.859  
  25144712.328   132136431.274    25144718.457   102963448.764    25144718.504  
  25821406.969   135692526.250    25821415.152   105734381.053    25821414.582  
  22686784.641   119220048.581    22686790.629    92898653.981                  
  20651298.133   108523206.424    20651303.789    84563699.427    20651303.508  
  23314761.273   122519811.608    23314767.121    95470111.578    23314767.387  
  20447534.797   107452562.036    20447539.984    83729319.823    20447539.883  
  21287817.719   111868276.542    21287821.594    87170134.242                  
  24285112.430   127619069.178    24285117.113    99443517.362                  
  23191553.547   121872378.410    23191563.043    94965615.453    23191562.828  
  23047286.766   121114206.392    23047295.004    94374876.810    23047294.887  
 22 01 08 01 02 06.0000000  0 12G01G06G07G10G13G14G15G17G19G21G24G30
  22074029.000   115999791.030    22074037.688    90389522.304    22074036.879  
  25346769.070   133198183.855    25346777.750   103790821.204    25346778.441  
  25145433.219   132140220.230    25145439.527   102966401.198    25145439.336  
  25821598.336   135693530.953    25821606.699   105735163.942    25821606.098  
  22687315.195   119222835.573    22687320.895    92900825.658                  
  20651554.500   108524552.756    20651559.953    84564748.516    20651559.902  
  23315132.633   122521764.388    23315138.637    95471633.231    23315138.711  
  20447432.016   107452023.127    20447437.152    83728899.898    20447437.238  
  21287308.875   111865598.882    21287311.922    87168047.754                  
  24285547.516   127621355.608    24285551.777    99445298.982                  
  23190953.188   121869222.401    23190962.227    94963156.228    23190962.445  
  23047937.438   121117628.387    23047946.066    94377543.301    23047945.875  
 22 01 08 01 02 07.0000000  0 12G01G06G07G10G13G14G15G17G19G21G24G30
  22074094.430   116000131.901    22074102.609    90389787.916    22074101.945  
  25346046.438   133194377.394    25346052.992   103787855.121    25346054.047  
  25146154.273   132144009.169    25146160.762   102969353.619    25146160.102  
  25821789.555   135694536.235    25821797.797   105735947.289    25821797.414  
  22687846.055   119225622.959    22687851.328    92902997.639                  
  20651810.969   108525899.475    20651816.184    84565797.911    20651816.184  
  23315503.766   122523717.674    23315510.348    95473155.272    23315510.398  
  20447329.500   107451484.730    20447334.824    83728480.364    20447335.098  
  21286799.039   111862921.655    21286802.734    87165961.608                  
  24285981.969   127623642.392    24285987.066    99447080.885                  
  23190352.938   121866066.691    23190362.059    94960697.241    23190362.148  
  23048589.422   121121050.616    23048597.414    94380209.972    23048597.254  
 22 01 08 01 02 08.0000000  0 12G01G06G07G10G13G14G15G17G19G21G24G30
  22074159.336   116000473.506    22074167.605    90390054.098    22074166.941  
  25345321.547   133190570.901    25345329.328   103784889.022    25345330.055  
  25146874.883   132147798.196    25146881.883   102972306.107    25146881.164  
  25821980.898   135695542.028    25821988.746   105736731.018    25821988.617  
  22688376.609   119228410.721    22688382.063    92905169.913                  
  20652066.891   108527246.541    20652072.977    84566847.569    20652072.777  
  23315876.188   122525671.439    23315882.813    95474677.685    23315882.676  
  20447227.766   107450946.874    20447232.613    83728061.254    20447232.637  
  21286289.813   111860244.885    21286293.020    87163875.815                  
  24286417.758   127625929.618    24286422.379    99448863.140                  
  23189752.555   121862911.296    23189761.715    94958238.495    23189762.055  
  23049240.750   121124473.137    23049248.801    94382876.872    23049248.758  
 22 01 08 01 02 09.0000000  0 12G01G06G07G10G13G14G15G17G19G21G24G30
  22074224.133   116000815.901    22074232.816    90390320.900    22074231.910  
  25344596.836   133186764.266    25344604.684   103781922.820    25344605.543  
  25147596.508   132151587.331    25147602.844   102975258.681    25147602.242  
  25822172.508   135696548.370    25822180.414   105737515.174    25822180.246  
  22688906.781   119231198.974    22688912.586    92907342.571                  
  20652323.383   108528594.040    20652329.125    84567897.567    20652329.172  
  23316247.984   122527625.754    23316254.492    95476200.523    23316254.137  
  20447125.375   107450409.610    20447130.309    83727642.608    20447130.238  
  21285780.250   111857568.594    21285784.270    87161790.393                  
  24286853.320   127628217.310    24286857.961    99450645.768                  
  23189152.430   121859756.264    23189161.000    94955780.036    23189161.262  
  23049891.492   121127895.932    23049900.070    94385543.988    23049900.141  
 22 01 08 01 02 10.0000000  0 12G01G06G07G10G13G14G15G17G19G21G24G30
  22074289.516   116001159.022    22074298.113    90390588.268    22074297.488  
  25343872.828   133182957.622    25343880.266   103778956.613    25343881.367  
  25148316.602   132155376.522    25148323.844   102978211.299    25148323.242  
  25822364.148   135697555.310    25822371.891   105738299.810    25822371.691  
  22689437.734   119233987.590    22689443.059    92909515.523                  
  20652580.438   108529941.907    20652585.625    84568947.854    20652585.574  
  23316619.719   122529580.559    23316626.371    95477723.751    23316626.160  
  20447023.109   107449872.872    20447028.469    83727224.373    20447028.547  
  21285271.125   111854892.752    21285274.758    87159705.320                  
  24287288.195   127630505.408    24287293.363    99452428.689                  
  23188551.570   121856601.505    23188561.066    94953321.784    23188561.043  
  23050543.086   121131318.990    23050551.117    94388211.305    23050551.148  
 22 01 08 01 02 11.0000000  0 12G01G06G07G10G13G14G15G17G19G21G24G30
  22074354.586   116001502.924    22074363.375    90390856.248    22074362.781  
  25343149.336   133179150.808    25343155.887   103775990.283    25343156.684  
  25149038.602   132159165.778    25149044.727   102981163.965    25149044.477  
  25822555.984   135698562.728    25822563.449   105739084.805    25822563.215  
  22689967.672   119236776.624    22689973.914    92911688.810                  
  20652836.586   108531290.121    20652842.141    84569998.409    20652842.082  
  23316992.273   122531535.851    23316998.398    95479247.355    23316998.266  
  20446921.109   107449336.643    20446926.168    83726806.531    20446926.008  
  21284762.242   111852217.362    21284765.695    87157620.603                  
  24287723.102   127632793.884    24287728.574    99454211.922                  
  23187951.625   121853447.045    23187960.781    94950863.766    23187960.641  
  23051194.234   121134742.300    23051202.941    94390878.819    23051202.813  
 22 01 08 01 02 12.0000000  0 12G01G06G07G10G13G14G15G17G19G21G24G30
  22074420.406   116001847.611    22074429.070    90391124.836    22074428.328  
  25342424.023   133175343.994    25342431.645   103773023.939    25342432.367  
  25149759.992   132162955.071    25149766.180   102984116.654    25149766.047  
  25822746.461   135699570.768    25822755.371   105739870.286    25822755.199  
  22690498.984   119239566.091    22690504.680    92913862.420                  
  20653093.000   108532638.757    20653098.668    84571049.298    20653098.254  
  23317364.641   122533491.689    23317370.258    95480771.383    23317370.359  
  20446819.094   107448801.035    20446824.129    83726389.179    20446824.227  
  21284253.102   111849542.439    21284256.758    87155536.244                  
  24288159.008   127635082.877    24288164.109    99455995.546                  
  23187351.492   121850292.951    23187360.648    94948406.029    23187360.703  
  23051846.203   121138165.905    23051854.449    94393546.563    23051854.254  
 22 01 08 01 02 13.0000000  0 12G01G06G07G10G13G14G15G17G19G21G24G30
  22074485.898   116002193.054    22074494.668    90391394.011    22074494.129  
  25341699.555   133171537.111    25341707.285   103770057.539    25341708.090  
  25150480.102   132166744.463    25150487.313   102987069.433    25150487.125  
  25822938.984   135700579.358    25822947.715   105740656.197    25822947.301  
  22691029.867   119242355.985    22691035.039    92916036.350                  
  20653350.219   108533987.821    20653355.520    84572100.521    20653355.266  
  23317736.313   122535448.081    23317742.949    95482295.848    23317742.746  
  20446717.273   107448265.989    20446722.543    83725972.257    20446722.406  
  21283744.008   111846868.016    21283747.988    87153452.283                  
  24288594.820   127637372.257    24288599.770    99457779.475                  
  23186751.258   121847139.196    23186760.516    94945948.561    23186760.406  
  23052497.648   121141589.813    23052505.703    94396214.539    23052505.492  
 22 01 08 01 02 14.0000000  0 12G01G06G07G10G13G14G15G17G19G21G24G30
  22074552.039   116002539.226    22074560.449    90391663.756    22074560.090  
  25340974.719   133167730.141    25340982.547   103767091.069    25340983.355  
  25151202.227   132170533.984    25151208.270   102990022.306    25151207.785  
  25823131.602   135701588.476    25823139.488   105741442.528    25823139.023  
  22691561.031   119245146.269    22691566.820    92918210.605                  
  20653606.953   108535337.218    20653612.145    84573151.999    20653611.953  
  23318108.672   122537404.958    23318115.488    95483820.688    23318115.105  
  20446615.766   107447731.455    20446620.566    83725555.741    20446620.457  
  21283234.891   111844194.026    21283239.145    87151368.654                  
  24289030.773   127639662.082    24289035.680    99459563.749                  
  23186150.656   121843985.722    23186160.613    94943491.309    23186160.391  
  23053149.930   121145013.938    23053157.715    94398882.688    23053157.680  
 22 01 08 01 02 15.0000000  0 12G01G06G07G10G13G14G15G17G19G21G24G30
  22074618.016   116002886.198    22074626.363    90391934.128    22074625.570  
  25340251.703   133163923.045    25340258.402   103764124.493    25340259.188  
  25151922.727   132174323.519    25151929.297   102992975.192    25151929.457  
  25823323.445   135702598.130    25823331.688   105742229.267    25823331.211  
  22692091.969   119247936.944    22692097.777    92920385.160                  
  20653863.617   108536687.021    20653868.859    84574203.793    20653868.688  
  23318481.477   122539362.331    23318487.852    95485345.906    23318487.488  
  20446514.000   107447197.484    20446518.992    83725139.652    20446518.805  
  21282726.461   111841520.484    21282730.320    87149285.377                  
  24289466.109   127641952.318    24289471.270    99461348.353                  
  23185550.555   121840832.585    23185560.246    94941034.317    23185560.031  
  23053801.578   121148438.368    23053808.641    94401551.080    23053808.906  
 22 01 08 01 02 16.0000000  0 12G01G06G07G10G13G14G15G17G19G21G24G30
  22074684.625   116003233.910    22074692.633    90392205.072    22074692.219  
  25339526.578   133160115.980    25339533.875   103761157.951    25339534.480  
  25152644.320   132178113.121    25152650.465   102995928.129    25152650.625  
  25823515.508   135703608.333    25823524.047   105743016.444    25823523.477  
  22692623.250   119250728.075    22692628.805    92922560.055                  
  20654120.211   108538037.204    20654125.852    84575255.879    20654125.969  
  23318854.375   122541320.245    23318860.746    95486871.553    23318860.531  
  20446412.539   107446664.043    20446417.230    83724723.989    20446417.141  
  21282218.188   111838847.413    21282221.488    87147202.467                  
  24289902.766   127644242.934    24289907.387    99463133.241                  
  23184950.703   121837679.804    23184960.355    94938577.605    23184959.984  
  23054453.430   121151863.044    23054460.152    94404219.656    23054460.344  
 22 01 08 01 02 17.0000000  0 12G01G06G07G10G13G14G15G17G19G21G24G30
  22074750.570   116003582.386    22074759.184    90392476.614    22074758.492  
  25338802.047   133156308.736    25338809.387   103758191.261    25338809.695  
  25153365.352   132181902.717    25153371.551   102998881.059    25153371.887  
  25823708.117   135704619.090    25823716.000   105743804.057    25823715.195  
  22693154.867   119253519.597    22693159.832    92924735.267                  
  20654377.313   108539387.794    20654383.059    84576308.290    20654382.891  
  23319226.305   122543278.605    23319233.074    95488397.550    23319233.016  
  20446311.281   107446131.186    20446316.426    83724308.771    20446316.133  
  21281709.352   111836174.809    21281713.070    87145119.921                  
  24290339.016   127646534.018    24290343.402    99464918.513                  
  23184350.414   121834527.310    23184360.766    94936121.116    23184360.363  
  23055104.477   121155288.023    23055112.449    94406888.470    23055112.465  
 22 01 08 01 02 18.0000000  0 12G01G06G07G10G13G14G15G17G19G21G24G30
  22074817.742   116003931.622    22074826.039    90392748.743    22074825.172  
  25338077.578   133152501.450    25338084.898   103755224.553    25338084.984  
  25154086.820   132185692.518    25154092.902   103001834.155    25154093.125  
  25823900.211   135705630.381    25823908.418   105744592.087    25823907.691  
  22693685.789   119256311.539    22693691.309    92926910.805                  
  20654634.836   108540738.727    20654640.148    84577360.967    20654639.891  
  23319599.961   122545237.536    23319605.922    95489923.990    23319605.965  
  20446209.883   107445598.852    20446214.863    83723893.967    20446214.766  
  21281200.469   111833502.668    21281204.418    87143037.736                  
  24290775.430   127648825.564    24290779.871    99466704.140                  
  23183751.203   121831375.121    23183760.793    94933664.868    23183760.215  
  23055756.109   121158713.245    23055764.348    94409557.474    23055764.563  
 22 01 08 01 02 19.0000000  0 12G01G06G07G10G13G14G15G17G19G21G24G30
  22074884.172   116004281.643    22074891.988    90393021.488    22074891.504  
  25337353.336   133148694.109    25337360.289   103752257.803    25337360.684  
  25154808.148   132189482.302    25154813.980   103004787.225    25154813.793  
  25824092.609   135706642.296    25824100.805   105745380.583    25824100.125  
  22694217.031   119259103.909    22694222.465    92929086.680                  
  20654892.023   108542090.088    20654897.703    84578413.970    20654897.418  
  23319972.227   122547196.987    23319978.609    95491450.835    23319978.848  
  20446108.594   107445067.094    20446113.629    83723479.616    20446113.492  
  21280692.578   111830831.005    21280696.363    87140955.921                  
  24291210.688   127651117.506    24291215.512    99468490.077                  
  23183151.250   121828223.298    23183161.074    94931208.906    23183160.668  
  23056407.945   121162138.767    23056416.094    94412226.711    23056416.035  
 22 01 08 01 02 20.0000000  0 12G01G06G07G10G13G14G15G17G19G21G24G30
  22074950.195   116004632.386    22074958.602    90393294.795    22074958.508  
  25336628.563   133144886.663    25336635.547   103749290.958    25336635.965  
  25155529.219   132193272.173    25155535.262   103007740.372    25155534.777  
  25824285.922   135707654.723    25824293.180   105746169.490    25824292.660  
  22694748.820   119261896.687    22694753.570    92931262.874                  
  20655148.883   108543441.822    20655154.484    84579467.276    20655154.656  
  23320344.797   122549156.983    23320351.520    95492978.103    23320351.594  
  20446007.328   107444535.873    20446012.578    83723065.679    20446012.477  
  21280183.688   111828159.805    21280188.000    87138874.462                  
  24291647.672   127653409.868    24291651.883    99470276.311                  
  23182551.805   121825071.782    23182561.363    94928753.179    23182561.184  
  23057060.344   121165564.535    23057068.352    94414896.138    23057068.438  
 22 01 08 01 02 21.0000000  0 12G01G06G07G10G13G14G15G17G19G21G24G30
  22075017.219   116004983.921    22075025.352    90393568.717    22075025.363  
  25335903.797   133141079.147    25335911.383   103746324.073    25335911.738  
  25156250.516   132197062.129    25156256.531   103010693.581    25156256.402  
  25824478.570   135708667.686    25824486.395   105746958.808    25824486.320  
  22695280.711   119264689.839    22695285.508    92933439.357                  
  20655406.438   108544793.919    20655411.484    84580520.857    20655411.137  
  23320718.609   122551117.410    23320724.645    95494505.709    23320724.621  
  20445906.531   107444005.179    20445911.691    83722652.146    20445911.477  
  21279675.836   111825489.021    21279679.805    87136793.338                  
  24292083.867   127655702.622    24292088.223    99472062.876                  
  23181952.313   121821920.556    23181961.758    94926297.687    23181961.676  
  23057712.219   121168990.557    23057720.129    94417565.769    23057720.219  
 22 01 08 01 02 22.0000000  0 12G01G06G07G10G13G14G15G17G19G21G24G30
  22075084.281   116005336.175    22075092.406    90393843.199    22075092.027  
  25335178.695   133137271.575    25335186.531   103743357.134    25335186.785  
  25156972.336   132200852.106    25156978.078   103013646.808    25156977.594  
  25824671.109   135709681.170    25824679.488   105747748.531    25824679.504  
  22695811.633   119267483.436    22695817.309    92935616.178                  
  20655663.961   108546146.401    20655669.059    84581574.738    20655668.906  
  23321092.109   122553078.373    23321097.914    95496033.727    23321097.879  
  20445805.844   107443475.036    20445810.633    83722239.052    20445810.566  
  21279167.742   111822818.735    21279171.797    87134712.590                  
  24292519.945   127657995.844    24292524.590    99473849.793                  
  23181352.672   121818769.659    23181362.195    94923842.443    23181361.852  
  23058363.852   121172416.874    23058372.000    94420235.624    23058371.711  
 22 01 08 01 02 23.0000000  0 12G01G06G07G10G13G14G15G17G19G21G24G30
  22075151.000   116005689.215    22075159.586    90394118.294    22075158.988  
  25334454.680   133133463.853    25334462.063   103740390.079    25334462.484  
  25157692.023   132204642.176    25157699.172   103016600.107    25157698.688  
  25824863.984   135710695.271    25824872.090   105748538.737    25824871.375  
  22696343.875   119270277.416    22696348.789    92937793.302                  
  20655921.688   108547499.284    20655926.594    84582628.936    20655926.469  
  23321465.242   122555039.861    23321471.324    95497562.159    23321471.438  
  20445704.820   107442945.447    20445710.004    83721826.380    20445709.914  
  21278659.578   111820148.897    21278663.219    87132632.201                  
  24292956.594   127660289.434    24292960.777    99475637.019                  
  23180753.250   121815619.108    23180762.535    94921387.470    23180762.379  
  23059015.961   121175843.430    23059024.285    94422905.669    23059024.215  
 22 01 08 01 02 24.0000000  0 12G01G06G07G10G13G14G15G17G19G21G24G30
  22075219.297   116006043.031    22075227.336    90394393.996    22075226.914  
  25333730.828   133129656.189    25333737.445   103737423.067    25333737.570  
  25158413.539   132208432.342    25158420.355   103019553.482    25158419.875  
  25825056.922   135711709.908    25825065.410   105749329.362    25825064.504  
  22696875.305   119273071.867    22696880.680    92939970.793                  
  20656178.359   108548852.561    20656184.039    84583683.436    20656183.734  
  23321837.617   122557001.870    23321844.410    95499090.999    23321844.512  
  20445604.164   107442416.440    20445609.441    83721414.167    20445609.168  
  21278151.391   111817479.547    21278155.535    87130552.189                  
  24293393.281   127662583.541    24293397.926    99477424.633                  
  23180153.164   121812468.884    23180163.070    94918932.751    23180163.043  
  23059668.430   121179270.330    23059676.426    94425575.980    23059676.168  
 22 01 08 01 02 25.0000000  0 12G01G06G07G10G13G14G15G17G19G21G24G30
  22075285.602   116006397.608    22075294.902    90394670.283    22075294.473  
  25333004.961   133125848.396    25333012.750   103734455.944    25333013.195  
  25159134.789   132212222.564    25159141.395   103022506.898    25159141.203  
  25825250.391   135712725.121    25825258.680   105750120.429    25825257.969  
  22697407.125   119275866.705    22697412.664    92942148.596                  
  20656436.156   108550206.234    20656441.840    84584738.243    20656441.582  
  23322211.266   122558964.423    23322217.953    95500620.264    23322218.156  
  20445503.859   107441887.986    20445508.617    83721002.387    20445508.375  
  21277643.789   111814810.673    21277647.422    87128472.544                  
  24293828.914   127664878.054    24293834.461    99479212.573                  
  23179554.133   121809318.989    23179563.418    94916478.287    23179563.012  
  23060320.148   121182697.448    23060328.637    94428246.463    23060328.449  
 22 01 08 01 02 26.0000000  0 12G01G06G07G10G13G14G15G17G19G21G24G30
  22075353.766   116006752.891    22075362.324    90394947.128    22075362.113  
  25332280.266   133122040.402    25332288.102   103731488.677    25332288.648  
  25159856.242   132216012.832    25159862.879   103025460.356    25159862.512  
  25825443.305   135713740.829    25825451.535   105750911.886    25825450.637  
  22697938.742   119278661.924    22697944.324    92944326.693                  
  20656693.859   108551560.230    20656699.129    84585793.309    20656699.184  
  23322584.969   122560927.403    23322591.980    95502149.854    23322591.859  
  20445403.445   107441360.040    20445407.863    83720591.001    20445407.738  
  21277136.359   111812142.206    21277140.227    87126393.226                  
  24294266.164   127667172.903    24294271.250    99481000.767                  
  23178954.484   121806169.410    23178964.305    94914024.072    23178963.676  
  23060972.055   121186124.813    23060980.289    94430917.135    23060980.313  
 22 01 08 01 02 27.0000000  0 12G01G06G07G10G13G14G15G17G19G21G24G30
  22075421.773   116007109.012    22075429.734    90395224.628    22075429.227  
  25331555.820   133118232.522    25331563.539   103728521.491    25331564.273  
  25160578.023   132219803.213    25160584.406   103028413.899    25160584.039  
  25825637.414   135714757.089    25825644.938   105751703.781    25825644.273  
  22698470.469   119281457.593    22698476.066    92946505.136                  
  20656951.195   108552914.684    20656957.152    84586848.722    20656957.137  
  23322959.078   122562890.970    23322965.207    95503679.906    23322965.426  
  20445303.258   107440832.679    20445308.094    83720180.073    20445307.809  
  21276628.438   111809474.232    21276631.633    87124314.282                  
  24294702.445   127669468.253    24294708.043    99482789.369                  
  23178354.891   121803020.151    23178365.121    94911570.101    23178364.453  
  23061624.922   121189552.492    23061632.945    94433588.053    23061632.742  
 22 01 08 01 02 28.0000000  0 12G01G06G07G10G13G14G15G17G19G21G24G30
  22075489.578   116007465.824    22075497.699    90395502.662    22075497.098  
  25330831.039   133114424.451    25330839.277   103725554.170    25330840.293  
  25161299.445   132223593.590    25161305.441   103031367.439    25161305.367  
  25825830.969   135715773.910    25825838.598   105752496.119    25825837.969  
  22699003.563   119284253.666    22699008.813    92948683.883                  
  20657209.328   108554269.498    20657214.691    84587904.421    20657214.691  
  23323333.063   122564855.022    23323339.039    95505210.338    23323338.938  
  20445202.695   107440305.864    20445208.047    83719769.566    20445207.973  
  21276121.141   111806806.723    21276124.367    87122235.709                  
  24295139.531   127671764.022    24295145.027    99484578.282                  
  23177756.508   121799871.222    23177765.848    94909116.393    23177765.188  
  23062276.813   121192980.419    23062284.766    94436259.169    23062284.648  
 22 01 08 01 02 29.0000000  0 12G01G06G07G10G13G14G15G17G19G21G24G30
  22075557.719   116007823.445    22075566.387    90395781.331    22075565.816  
  25330106.602   133110616.349    25330114.145   103722586.823    25330114.875  
  25162020.398   132227384.136                   103034321.118    25162026.816  
  25826024.492   135716791.305    25826031.758   105753288.903    25826031.293  
  22699535.148   119287050.152    22699540.645    92950862.969                  
  20657467.305   108555624.703    20657472.363    84588960.427    20657472.238  
  23323706.516   122566819.585    23323712.801    95506741.166    23323712.695  
  20445102.758   107439779.613    20445107.887    83719359.498    20445107.875  
  21275613.156   111804139.673    21275616.477    87120157.486                  
  24295576.953   127674060.231    24295582.250    99486367.528                  
  23177156.750   121796722.598    23177166.539    94906662.924    23177166.129  
  23062929.359   121196408.634    23062937.176    94438930.503    23062937.016  
 22 01 08 01 02 30.0000000  0 12G01G06G07G10G13G14G15G17G19G21G24G30
  22075625.727   116008181.813    22075634.211    90396060.576    22075633.793  
  25329383.078   133106808.140    25329389.859   103719619.385    25329390.664  
  25162740.859   132231174.622                   103037274.736    25162747.992  
  25826218.844   135717809.210    25826225.613   105754082.077    25826225.277  
  22700067.133   119289847.030    22700073.004    92953042.360                  
  20657724.883   108556980.268    20657730.418    84590016.709    20657730.445  
  23324080.492   122568784.650    23324086.617    95508272.386    23324086.684  
  20445002.430   107439253.892    20445007.445    83718949.851    20445007.172  
  21275105.281   111801473.085    21275109.516    87118079.623                  
  24296013.305   127676356.810    24296019.180    99488157.063                  
  23176558.023   121793574.316    23176567.746    94904209.715    23176567.480  
  23063582.008   121199837.114    23063589.840    94441602.045    23063589.738  
 22 01 08 01 02 31.0000000  0 12G01G06G07G10G13G14G15G17G19G21G24G30
  22075694.289   116008540.961    22075702.762    90396340.429    22075702.055  
  25328657.945   133102999.887    25328664.988   103716651.915    25328665.652  
  25163462.516   132234965.249                   103040228.480    25163469.289  
  25826412.719   135718827.714    25826419.664   105754875.723    25826419.301  
  22700599.914   119292644.342    22700605.520    92955222.079                  
  20657983.125   108558336.232    20657988.754    84591073.312    20657988.641  
  23324454.813   122570750.277    23324460.719    95509804.044    23324460.500  
  20444902.313   107438728.741    20444907.297    83718540.641    20444907.109  
  21274598.000   111798806.965    21274601.719    87116002.130                  
  24296450.852   127678653.867    24296456.223    99489946.972                  
  23175959.180   121790426.322    23175968.246    94901756.732    23175968.008  
  23064234.156   121203265.837    23064242.746    94444273.781    23064242.688  
 22 01 08 01 02 32.0000000  0 12G01G06G07G10G13G14G15G17G19G21G24G30
  22075762.461   116008900.843    22075771.035    90396620.859    22075770.586  
  25327933.188   133099191.550    25327940.301   103713684.375    25327941.191  
  25164183.672   132238755.960                   103043182.281    25164190.660  
  25826607.133   135719846.744    25826613.426   105755669.767    25826612.879  
  22701132.141   119295442.085    22701137.566    92957402.136                  
  20658241.594   108559692.584    20658247.098    84592130.210    20658247.188  
  23324828.328   122572716.395    23324834.848    95511336.087    23324834.891  
  20444802.711   107438204.114    20444807.793    83718131.840    20444807.469  
  21274090.969   111796141.323    21274095.113    87113925.009                  
  24296887.727   127680951.364    24296892.957    99491737.220                  
  23175360.422   121787278.678    23175369.324    94899304.025    23175368.828  
  23064886.273   121206694.875    23064895.008    94446945.757    23064894.730  
 22 01 08 01 02 33.0000000  0 12G01G06G07G10G13G14G15G17G19G21G24G30
  22075831.148   116009261.493    22075839.418    90396901.891    22075838.844  
  25327208.805   133095383.107    25327215.410   103710716.753    25327216.340  
  25164905.539   132242546.689                   103046136.098    25164912.691  
  25826800.531   135720866.316    25826807.301   105756464.227    25826806.734  
  22701664.914   119298240.185    22701669.902    92959582.469                  
  20658499.555   108561049.318    20658505.039    84593187.407    20658504.918  
  23325202.445   122574682.981    23325208.867    95512868.494    23325208.914  
  20444702.922   107437680.060    20444707.828    83717723.485    20444707.770  
  21273583.945   111793476.128    21273587.824    87111848.237                  
  24297326.031   127683249.261    24297330.711    99493527.791                  
  23174761.180   121784131.350    23174770.672    94896851.563    23174770.176  
  23065539.242   121210124.149    23065547.480    94449617.921    23065547.211  
 22 01 08 01 02 34.0000000  0 12G01G06G07G10G13G14G15G17G19G21G24G30
  22075900.047   116009622.893    22075908.668    90397183.499    22075908.121  
  25326483.453   133091574.626    25326490.770   103707749.110    25326491.859  
  25165627.172   132246337.522                   103049089.989    25165633.668  
  25826995.102   135721886.424    25827001.512   105757259.114    25827001.379  
  22702197.172   119301038.707    22702202.465    92961763.133                  
  20658757.953   108562406.423    20658763.313    84594244.891    20658763.000  
  23325577.148   122576650.074    23325583.113    95514401.290    23325583.324  
  20444603.320   107437156.537    20444608.285    83717315.544    20444608.031  
  21273076.594   111790811.381    21273080.637    87109771.806                  
  24297762.602   127685547.550    24297768.262    99495318.646                  
  23174162.383   121780984.334    23174171.707    94894399.341    23174170.844  
  23066192.391   121213553.690    23066200.543    94452290.292    23066200.211  
 22 01 08 01 02 35.0000000  0 12G01G06G07G10G13G14G15G17G19G21G24G30
  22075969.266   116009985.057    22075977.668    90397465.710    22075976.832  
  25325758.969   133087766.038    25325766.133   103704781.383    25325767.109  
  25166349.039   132250128.434                   103052043.944    25166355.398  
  25827189.063   135722907.121    25827195.609   105758054.454    25827195.844  
  22702729.148   119303837.684    22702734.855    92963944.156                  
  20659016.320   108563763.936    20659022.016    84595302.692    20659021.762  
  23325950.977   122578617.729    23325957.363    95515934.525    23325957.590  
  20444503.727   107436633.567    20444508.746    83716908.041    20444508.508  
  21272569.617   111788147.122    21272573.484    87107695.766                  
  24298199.938   127687846.285    24298205.305    99497109.882                  
  23173563.883   121777837.654    23173572.941    94891947.387    23173572.496  
  23066844.750   121216983.527    23066852.723    94454962.885    23066852.520  
 22 01 08 01 02 36.0000000  0 12G01G06G07G10G13G14G15G17G19G21G24G30
  22076038.266   116010348.044    22076046.383    90397748.556    22076045.918  
  25325034.156   133083957.416    25325041.203   103701813.631    25325042.418  
  25167070.813   132253919.381                   103054997.935    25167076.977  
  25827383.609   135723928.347    25827390.219   105758850.217    25827390.238  
  22703262.109   119306637.062    22703268.156    92966125.500                  
  20659274.359   108565121.836    20659280.055    84596360.794    20659279.527  
  23326325.859   122580585.889    23326332.469    95517468.157    23326332.656  
  20444404.703   107436111.172    20444409.234    83716500.979    20444409.281  
  21272062.758   111785483.340    21272066.664    87105620.087                  
  24298637.328   127690145.441    24298641.988    99498901.449                  
  23172965.719   121774691.298    23172974.172    94889495.685    23172973.758  
  23067497.500   121220413.631    23067505.723    94457635.689    23067505.320  
 22 01 08 01 02 37.0000000  0 12G01G06G07G10G13G14G15G17G19G21G24G30
  22076107.391   116010711.716    22076115.672    90398031.941    22076115.027  
  25324309.539   133080148.717    25324316.141   103698845.819    25324317.027  
  25167791.117   132257710.463                   103057952.025    25167798.117  
  25827577.078   135724950.108    25827584.438   105759646.395    25827584.469  
  22703794.750   119309436.848    22703800.496    92968307.149                  
  20659533.133   108566480.136    20659538.625    84597419.208    20659538.270  
  23326700.617   122582554.552    23326706.723    95519002.183    23326706.949  
  20444305.352   107435589.328    20444310.148    83716094.349    20444310.055  
  21271555.961   111782820.018    21271560.031    87103544.771                  
  24299075.172   127692445.054    24299079.813    99500693.363                  
  23172365.641   121771545.285    23172375.488    94887044.247    23172375.031  
  23068149.961   121223844.002    23068158.328    94460308.703    23068157.918  
 22 01 08 01 02 38.0000000  0 12G01G06G07G10G13G14G15G17G19G21G24G30
  22076176.703   116011076.176    22076185.305    90398315.939    22076184.707  
  25323584.531   133076339.920    25323591.547   103695877.928    25323592.660  
  25168512.938   132261501.528                   103060906.098    25168519.820  
  25827772.586   135725972.437    25827779.348   105760443.020    25827779.316  
  22704328.180   119312237.017    22704333.961    92970489.094                  
  20659791.922   108567838.784    20659797.270    84598477.899    20659797.016  
  23327075.688   122584523.749    23327081.676    95520536.619    23327082.164  
  20444206.367   107435068.001    20444211.109    83715688.115    20444211.219  
  21271049.047   111780157.140    21271053.152    87101469.800                  
  24299513.320   127694745.028    24299517.953    99502485.552                  
  23171768.000   121768399.584    23171776.996    94884593.052    23171776.723  
  23068802.547   121227274.630    23068811.504    94462981.920    23068811.355  
 22 01 08 01 02 39.0000000  0 12G01G06G07G10G13G14G15G17G19G21G24G30
  22076245.539   116011441.394    22076254.309    90398600.524    22076253.770  
  25322860.797   133072531.056    25322866.805   103692909.987    25322868.020  
  25169235.063   132265292.749                   103063860.289    25169241.324  
  25827966.813   135726995.335    25827974.297   105761240.088    25827974.027  
  22704860.969   119315037.624    22704866.465    92972671.378                  
  20660050.180   108569197.850    20660055.891    84599536.907    20660055.578  
  23327450.453   122586493.458    23327456.285    95522071.459    23327456.680  
  20444106.906   107434547.249    20444111.906    83715282.339    20444111.719  
  21270542.836   111777494.726    21270546.691    87099395.197                  
  24299951.344   127697045.459    24299955.852    99504278.075                  
  23171169.648   121765254.184    23171177.918    94882142.095    23171177.848  
  23069455.508   121230705.521    23069463.766    94465655.342    23069463.820  
 22 01 08 01 02 40.0000000  0 12G01G06G07G10G13G14G15G17G19G21G24G30
  22076316.172   116011807.332    22076324.531    90398885.669    22076323.844  
  25322135.602   133068722.079    25322142.020   103689941.950    25322143.305  
  25169955.500   132269083.946                   103066814.466    25169962.695  
  25828161.688   135728018.703    25828168.418   105762037.519    25828168.105  
  22705394.680   119317838.608    22705399.750    92974853.962                  
  20660309.109   108570557.269    20660314.277    84600596.195    20660314.160  
  23327825.281   122588463.639    23327831.633    95523606.662    23327831.875  
  20444007.828   107434027.013    20444012.730    83714876.963    20444012.723  
  21270036.117   111774832.752    21270039.844    87097320.935                  
  24300388.836   127699346.291    24300393.512    99506070.943                  
  23170571.406   121762109.103    23170579.801    94879691.380    23170579.547  
  23070108.813   121234136.700    23070117.219    94468328.992    23070117.465  
 22 01 08 01 02 41.0000000  0 12G01G06G07G10G13G14G15G17G19G21G24G30
  22076385.352   116012174.102    22076394.047    90399171.460    22076393.840  
  25321410.508   133064913.082    25321417.391   103686973.907    25321418.465  
  25170677.055   132272875.206                   103069768.695    25170683.539  
  25828356.781   135729042.731    25828363.578   105762835.466    25828363.148  
  22705926.867   119320640.061    22705932.504    92977036.916                  
  20660567.648   108571917.086    20660573.145    84601655.796    20660572.859  
  23328200.156   122590434.344    23328206.418    95525142.268    23328206.813  
  20443909.102   107433507.355    20443913.918    83714472.035    20443913.836  
  21269529.977   111772171.281    21269533.676    87095247.060                  
  24300826.031   127701647.597    24300830.945    99507864.157                  
  23169972.414   121758964.432    23169981.418    94877240.981    23169981.160  
  23070761.688   121237568.127    23070770.168    94471002.828    23070770.363  
 22 01 08 01 02 42.0000000  0 12G01G06G07G10G13G14G15G17G19G21G24G30
  22076455.484   116012541.566    22076464.063    90399457.795    22076463.813  
  25320685.445   133061103.969    25320692.457   103684005.764    25320693.453  
  25171398.273   132276666.608                   103072723.034    25171404.941  
  25828551.117   135730067.217    25828558.906   105763633.753    25828557.813  
  22706460.344   119323441.880    22706465.664    92979220.151                  
  20660826.336   108573277.263    20660831.965    84602715.671    20660831.797  
  23328575.953   122592405.527    23328581.961    95526678.258    23328582.355  
  20443810.008   107432988.220    20443814.980    83714067.512    20443815.191  
  21269023.031   111769510.201    21269027.113    87093173.489                  
  24301264.867   127703949.242    24301269.512    99509657.650                  
  23169373.820   121755819.994    23169382.926    94874790.764    23169382.684  
  23071414.297   121240999.834    23071422.813    94473676.883    23071422.555  
 22 01 08 01 02 43.0000000  0 12G01G06G07G10G13G14G15G17G19G21G24G30
  22076525.078   116012909.784    22076533.953    90399744.715    22076533.633  
  25319960.133   133057294.753    25319967.672   103681037.538    25319968.504  
  25172119.445   132280457.993                   103075677.353    25172126.891  
  25828747.070   135731092.282    25828754.262   105764432.506    25828753.359  
  22706993.633   119326244.090    22706998.652    92981403.697                  
  20661085.313   108574637.810    20661090.895    84603775.841    20661091.031  
  23328951.086   122594377.236    23328956.719    95528214.652    23328957.473  
  20443711.406   107432469.620    20443716.582    83713663.406    20443716.492  
  21268517.188   111766849.582    21268520.895    87091100.282                  
  24301702.328   127706251.347    24301707.105    99511451.507                  
  23168775.719   121752675.862    23168784.859    94872340.792    23168784.703  
  23072068.188   121244431.763    23072076.141    94476351.109    23072076.133  
 22 01 08 01 02 44.0000000  0 12G01G06G07G10G13G14G15G17G19G21G24G30
  22076595.383   116013278.834    22076603.770    90400032.284    22076603.461  
  25319235.523   133053485.541    25319242.840   103678069.318    25319244.016  
  25172841.344   132284249.492                   103078631.764    25172848.098  
  25828942.008   135732117.872    25828949.504   105765231.665    25828948.426  
  22707526.977   119329046.762    22707531.852    92983587.595                  
  20661344.594   108575998.810    20661350.082    84604836.358    20661350.016  
  23329326.219   122596349.493    23329331.727    95529751.473    23329332.406  
  20443612.688   107431951.628    20443617.797    83713259.779    20443617.609  
  21268010.930   111764189.502    21268014.363    87089027.500                  
  24302141.859   127708553.910    24302145.352    99513245.727                  
  23168177.078   121749532.117    23168186.297    94869891.123    23168186.332  
  23072721.289   121247864.027    23072729.145    94479025.605    23072728.961  
 22 01 08 01 02 45.0000000  0 12G01G06G07G10G13G14G15G17G19G21G24G30
  22076665.992   116013648.583    22076674.371    90400320.402    22076673.887  
  25318510.102   133049676.198    25318517.441   103675101.007    25318518.984  
  25173562.820   132288041.074                   103081586.231    25173569.508  
  25829137.172   135733144.032    25829144.723   105766031.268    25829143.996  
  22708060.078   119331849.831    22708065.621    92985771.801                  
  20661603.664   108577360.155    20661608.734    84605897.148    20661608.363  
  23329701.445   122598322.236    23329707.430    95531288.676    23329707.871  
  20443514.242   107431434.139    20443519.410    83712856.539    20443519.398  
  21267504.586   111761529.835    21267508.590    87086955.031                  
  24302579.359   127710856.854    24302584.168    99515040.231                  
  23167579.750   121746388.688    23167587.816    94867441.703    23167587.969  
  23073374.234   121251296.526    23073382.125    94481700.277    23073381.852  
 22 01 08 01 02 46.0000000  0 12G01G06G07G10G13G14G15G17G19G21G24G30
  22076736.141   116014019.143    22076745.223    90400609.146    22076744.699  
  25317785.422   133045866.828    25317792.691   103672132.670    25317794.199  
  25174284.281   132291832.678                   103084540.722    25174291.070  
  25829332.422   135734170.775    25829339.621   105766831.325    25829339.344  
  22708593.883   119334653.320    22708599.059    92987956.330                  
  20661862.813   108578721.884    20661867.824    84606958.237    20661867.809  
  23330076.750   122600295.494    23330083.074    95532826.281    23330083.523  
  20443416.266   107430917.265    20443420.879    83712453.782    20443421.070  
  21266999.094   111758870.658    21267002.727    87084882.942                  
  24303017.008   127713160.276    24303022.352    99516835.108                  
  23166981.164   121743245.531    23166989.676    94864992.490    23166989.883  
  23074027.484   121254729.288    23074035.500    94484375.157    23074035.617  
 22 01 08 01 02 47.0000000  0 12G01G06G07G10G13G14G15G17G19G21G24G30
  22076807.688   116014390.408    22076815.543    90400898.446    22076815.086  
  25317059.977   133042057.304    25317067.762   103669164.220    25317068.836  
  25175006.078   132295624.399                   103087495.305    25175012.590  
  25829527.797   135735198.053    25829535.180   105767631.800    25829534.699  
  22709127.414   119337457.165    22709132.754    92990141.145                  
  20662121.930   108580084.003    20662127.160    84608019.629    20662127.055  
  23330451.750   122602269.274    23330458.477    95534364.292    23330458.820  
  20443317.984   107430400.915    20443322.848    83712051.427    20443322.563  
  21266492.695   111756211.937    21266496.371    87082811.215                  
  24303455.508   127715464.054    24303460.703    99518630.265                  
  23166383.227   121740102.781    23166391.594    94862543.594    23166391.906  
  23074680.969   121258162.328    23074689.207    94487050.249    23074689.035  
 22 01 08 01 02 48.0000000  0 12G01G06G07G10G13G14G15G17G19G21G24G30
  22076877.898   116014762.480    22076886.508    90401188.371    22076886.117  
  25316336.000   133038247.829    25316342.770   103666195.806    25316343.613  
  25175727.258   132299416.174                   103090449.937    25175734.684  
  25829723.469   135736225.883    25829731.578   105768432.702    25829730.977  
  22709661.328   119340261.509    22709666.770    92992326.348                  
  20662381.289   108581446.528    20662386.348    84609081.332    20662386.641  
  23330828.836   122604243.576    23330834.617    95535902.708    23330834.520  
  20443219.883   107429885.164    20443224.617    83711649.546    20443224.410  
  21265986.328   111753553.696    21265990.320    87080739.860                  
  24303894.297   127717768.313    24303898.988    99520425.779                  
  23165785.039   121736960.317    23165794.219    94860094.923    23165794.313  
  23075334.063   121261595.688    23075342.691    94489725.598    23075342.594  
 22 01 08 01 02 49.0000000  0 12G01G06G07G10G13G14G15G17G19G21G24G30
  22076949.203   116015135.290    22076957.301    90401478.874    22076956.777  
  25315610.531   133034438.215    25315617.863   103663227.269    25315618.652  
  25176449.055   132303207.972                   103093404.592    25176456.301  
  25829919.727   135737254.271    25829926.652   105769234.045    25829925.934  
  22710193.852   119343066.216    22710200.602    92994511.844                  
  20662640.547   108582809.443    20662645.770    84610143.345    20662645.797  
  23331203.680   122606218.358    23331210.480    95537441.505    23331210.125  
  20443121.789   107429369.915    20443126.594    83711248.049    20443126.645  
  21265481.320   111750895.913    21265485.176    87078668.859                  
  24304332.398   127720072.957    24304337.563    99522221.603                  
  23165187.516   121733818.177    23165196.426    94857646.506    23165196.434  
  23075987.000   121265029.273    23075995.512    94492401.116    23075995.426  
 22 01 08 01 02 50.0000000  0 12G01G06G07G10G13G14G15G17G19G21G24G30
  22077020.063   116015508.884    22077028.516    90401769.985    22077027.867  
  25314885.594   133030628.531    25314892.910   103660258.678    25314894.359  
  25177170.031   132306999.893                   103096359.337    25177177.309  
  25830115.805   135738283.176    25830122.984   105770035.786    25830122.125  
  22710728.281   119345871.338    22710734.230    92996697.654                  
  20662899.805   108584172.708    20662905.172    84611205.631    20662905.105  
  23331579.633   122608193.661    23331586.520    95538980.701    23331586.152  
  20443023.734   107428855.239    20443028.535    83710847.005    20443028.391  
  21264975.898   111748238.612    21264979.086    87076598.234                  
  24304770.789   127722378.062    24304776.320    99524017.799                  
  23164589.859   121730676.369    23164598.152    94855198.347    23164598.223  
  23076640.586   121268463.147    23076649.230    94495076.859    23076649.031  
 22 01 08 01 02 51.0000000  0 12G01G06G07G10G13G14G15G17G19G21G24G30
  22077091.164   116015883.232    22077100.023    90402061.689    22077099.559  
  25314159.680   133026818.798    25314167.773   103657290.053    25314169.152  
  25177891.672   132310791.824                   103099314.097    25177898.816  
  25830310.883   135739312.627    25830318.586   105770837.962    25830317.652  
  22711261.664   119348676.862    22711268.148    92998883.780                  
  20663159.234   108585536.386    20663164.543    84612268.237    20663164.582  
  23331955.719   122610169.484    23331962.367    95540520.306    23331961.832  
  20442925.727   107428341.081    20442930.734    83710446.368    20442930.547  
  21264470.125   111745581.742    21264473.777    87074527.946                  
  24305209.641   127724683.576    24305215.488    99525814.301                  
  23163991.492   121727534.889    23164000.125    94852750.443    23164000.082  
  23077294.211   121271897.269    23077302.336    94497752.800    23077302.355  
 22 01 08 01 02 52.0000000  0 12G01G06G07G10G13G14G15G17G19G21G24G30
  22077162.891   116016258.350    22077171.129    90402353.987    22077170.883  
  25313435.727   133023009.008    25313442.840   103654321.378    25313444.184  
  25178613.391   132314583.855                   103102268.921    25178620.852  
  25830507.414   135740342.691    25830514.313   105771640.615    25830513.551  
  22711796.023   119351482.847    22711802.016    93001070.256                  
  20663419.328   108586900.461    20663424.602    84613331.157    20663424.465  
  23332331.758   122612145.845    23332338.504    95542060.321    23332337.996  
  20442828.188   107427827.515    20442833.074    83710046.183    20442833.035  
  21263964.188   111742925.358    21263968.625    87072458.039                  
  24305648.438   127726989.499    24305654.012    99527611.123                  
  23163394.078   121724393.747    23163402.625    94850302.795    23163402.750  
  23077947.984   121275331.691    23077956.098    94500428.967    23077956.238  
 22 01 08 01 02 53.0000000  0 12G01G06G07G10G13G14G15G17G19G21G24G30
  22077234.375   116016634.183    22077242.496    90402646.847    22077242.270  
  25312710.289   133019199.081    25312717.449   103651352.595    25312719.102  
  25179335.789   132318375.947                   103105223.792    25179342.008  
  25830703.445   135741373.233    25830710.559   105772443.628    25830709.566  
  22712330.195   119354289.176    22712336.195    93003257.006                  
  20663678.570   108588264.886    20663684.207    84614394.343    20663683.906  
  23332707.695   122614122.653    23332715.211    95543600.689    23332714.383  
  20442730.570   107427314.445    20442735.246    83709646.388    20442735.098  
  21263458.469   111740269.433    21263462.742    87070388.486                  
  24306087.641   127729295.818    24306092.742    99529408.262                  
  23162796.492   121721252.931    23162804.809    94847855.403    23162804.969  
  23078601.445   121278766.308    23078609.461    94503105.297    23078609.641  
 22 01 08 01 02 54.0000000  0 12G01G06G07G10G13G14G15G17G19G21G24G30
  22077305.570   116017010.816    22077314.402    90402940.326    22077314.059  
  25311985.688   133015389.144    25311992.602   103648383.811    25311993.875  
  25180057.180   132322168.117                   103108178.728    25180063.801  
  25830899.914   135742404.352    25830907.051   105773247.089    25830906.035  
  22712864.625   119357095.937    22712870.480    93005444.091                  
  20663938.305   108589629.685    20663943.910    84615457.821    20663943.477  
  23333084.266   122616099.996    23333091.410    95545141.472    23333090.832  
  20442633.234   107426801.959    20442637.938    83709247.049    20442637.609  
  21262953.492   111737613.973    21262957.574    87068319.300                  
  24306526.602   127731602.556    24306531.680    99531205.705                  
  23162198.961   121718112.411    23162206.996    94845408.244    23162206.629  
  23079255.672   121282201.245    23079263.102    94505781.872    23079263.398  
 22 01 08 01 02 55.0000000  0 12G01G06G07G10G13G14G15G17G19G21G24G30
  22077377.492   116017388.188    22077386.145    90403234.384    22077385.648  
  25311261.359   133011579.062    25311267.602   103645414.927    25311268.793  
  25180778.344   132325960.243                   103111133.624    25180785.574  
  25831096.148   135743436.044    25831103.227   105774050.991    25831102.449  
  22713398.914   119359903.071    22713404.375    93007631.453                  
  20664198.164   108590994.894    20664203.410    84616521.621    20664203.152  
  23333460.805   122618077.845    23333467.031    95546682.649    23333466.785  
  20442535.422   107426290.002    20442540.609    83708848.128    20442540.426  
  21262448.734   111734958.945    21262452.582    87066250.451                  
  24306966.508   127733909.770    24306971.027    99533003.524                  
  23161600.820   121714972.190    23161609.824    94842961.319    23161609.645  
  23079909.500   121285636.436    23079917.031    94508458.643    23079917.121  
 22 01 08 01 02 56.0000000  0 12G01G06G07G10G13G14G15G17G19G21G24G30
  22077449.672   116017766.337    22077457.824    90403529.048    22077457.125  
  25310536.531   133007768.966    25310542.422   103642446.027    25310543.727  
  25181500.852   132329752.554                   103114088.680    25181507.102  
  25831292.945   135744468.269    25831299.797   105774855.308    25831299.152  
  22713933.117   119362710.696    22713938.332    93009819.213                  
  20664458.344   108592360.523    20664463.441    84617585.745    20664463.504  
  23333836.711   122620056.240    23333843.480    95548224.256    23333843.121  
  20442438.320   107425778.631    20442443.301    83708449.654    20442443.262  
  21261943.656   111732304.435    21261947.031    87064182.002                  
  24307405.047   127736217.403    24307409.992    99534801.661                  
  23161003.570   121711832.353    23161012.828    94840514.697    23161012.629  
  23080562.258   121289071.927    23080570.609    94511135.653    23080570.504  
 22 01 08 01 02 57.0000000  0 12G01G06G07G10G13G14G15G17G19G21G24G30
  22077521.727   116018145.234    22077530.336    90403824.295    22077529.824  
  25309811.398   133003958.804    25309817.875   103639477.078    25309818.930  
  25182222.289   132333544.922                   103117043.771    25182228.988  
  25831488.945   135745500.999    25831496.078   105775660.032    25831495.391  
  22714467.422   119365518.677    22714472.547    93012007.250                  
  20664718.094   108593726.484    20664723.441    84618650.134    20664723.285  
  23334214.242   122622035.101    23334220.543    95549766.227    23334219.977  
  20442341.227   107425267.776    20442346.117    83708051.583    20442345.934  
  21261437.977   111729650.367    21261442.266    87062113.891                  
  24307843.750   127738525.414    24307848.844    99536600.120                  
  23160406.320   121708692.823    23160415.043    94838068.311    23160414.617  
  23081216.320   121292507.648    23081224.504    94513812.838    23081224.605  
 22 01 08 01 02 58.0000000  0 12G01G06G07G10G13G14G15G17G19G21G24G30
  22077593.727   116018524.907    22077602.418    90404120.147    22077601.988  
  25309086.367   133000148.513    25309093.215   103636508.023    25309093.848  
  25182943.125   132337337.275                   103119998.839    25182950.531  
  25831685.016   135746534.317    25831693.000   105776465.217    25831692.285  
  22715002.391   119368327.097    22715006.707    93014195.637                  
  20664977.586   108595092.834    20664983.434    84619714.823    20664983.230  
  23334591.164   122624014.490    23334596.805    95551308.614    23334596.301  
  20442243.875   107424757.474    20442248.773    83707653.947    20442248.582  
  21260932.969   111726996.771    21260936.965    87060046.154                  
  24308282.719   127740833.915    24308288.441    99538398.951                  
  23159808.930   121705553.635    23159817.582    94835622.190    23159817.238  
  23081869.617   121295943.678    23081878.102    94516490.265    23081877.922  
 22 01 08 01 02 59.0000000  0 12G01G06G07G10G13G14G15G17G19G21G24G30
  22077666.281   116018905.348    22077675.063    90404416.594    22077674.777  
  25308360.953   132996338.185    25308367.695   103633538.933    25308368.215  
  25183664.523   132341129.768                   103122954.026    25183672.133  
  25831881.938   135747568.195    25831890.191   105777270.850    25831889.453  
  22715535.594   119371135.920    22715541.160    93016384.330                  
  20665237.531   108596459.595    20665243.359    84620779.831    20665243.313  
  23334967.125   122625994.403    23334974.016    95552851.405    23334973.496  
  20442147.063   107424247.741    20442151.852    83707256.750    20442151.648  
  21260428.047   111724343.631    21260431.934    87057978.774                  
  24308722.383   127743142.798    24308727.391    99540198.077                  
  23159211.266   121702414.755    23159220.375    94833176.311    23159219.855  
  23082523.594   121299379.944    23082532.148    94519167.872    23082532.203  
 22 01 08 01 03 00.0000000  0 12G01G06G07G10G13G14G15G17G19G21G24G30
  22077739.063   116019286.527    22077747.180    90404713.618    22077746.840  
  25307635.242   132992527.803    25307642.625   103630569.805    25307643.160  
  25184386.773   132344922.326                   103125909.249    25184393.594  
  25832078.422   135748602.612    25832086.852   105778076.905    25832086.035  
  22716070.438   119373945.150    22716076.121    93018573.346                  
  20665498.328   108597826.742    20665503.492    84621845.139    20665503.488  
  23335343.719   122627974.792    23335350.871    95554394.571    23335350.672  
  20442050.039   107423738.534    20442054.984    83706859.970    20442054.887  
  21259923.289   111721690.958    21259927.004    87055911.760                  
  24309162.063   127745452.117    24309166.879    99541997.570                  
  23158613.852   121699276.203    23158623.297    94830730.686    23158622.977  
  23083177.914   121302816.491    23083186.262    94521845.697    23083186.504  
 22 01 08 01 03 01.0000000  0 12G01G06G07G10G13G14G15G17G19G21G24G30
  22077811.523   116019668.504    22077820.023    90405011.258    22077819.809  
  25306911.188   132988717.320    25306917.531   103627600.599    25306917.980  
  25185109.664   132348714.935                   103128864.528    25185115.703  
  25832275.859   135749637.568    25832283.801   105778883.370    25832283.293  
  22716605.148   119376754.808    22716610.762    93020762.684                  
  20665757.875   108599194.276    20665763.418    84622910.749    20665763.258  
  23335721.109   122629955.761    23335727.234    95555938.182    23335727.172  
  20441953.484   107423229.917    20441958.055    83706463.644    20441958.000  
  21259418.703   111719038.778    21259422.648    87053845.132                  
  24309601.602   127747761.867    24309606.156    99543797.391                  
  23158016.813   121696138.000    23158026.195    94828285.338    23158026.020  
  23083831.883   121306253.320    23083840.313    94524523.746    23083840.621  
 22 01 08 01 03 02.0000000  0 12G01G06G07G10G13G14G15G17G19G21G24G30
  22077884.047   116020051.183    22077892.719    90405309.453    22077892.480  
  25306185.648   132984906.735    25306192.316   103624631.321    25306192.969  
  25185830.750   132352507.543                   103131819.823    25185837.129  
  25832473.156   135750673.064    25832480.602   105779690.254    25832479.953  
  22717139.742   119379564.825    22717145.777    93022952.307                  
  20666018.445   108600562.173    20666024.074    84623976.639    20666023.805  
  23336098.031   122631937.141    23336104.430    95557482.114    23336104.223  
  20441856.531   107422721.810    20441861.832    83706067.716    20441861.586  
  21258914.164   111716387.004    21258917.859    87051778.813                  
  24310041.758   127750071.976    24310045.703    99545597.490                  
  23157419.492   121693000.087    23157428.777    94825840.212    23157428.656  
  23084486.266   121309690.375    23084494.266    94527201.971    23084494.445  
 22 01 08 01 03 03.0000000  0 12G01G06G07G10G13G14G15G17G19G21G24G30
  22077957.758   116020434.664    22077965.613    90405608.270    22077965.164  
  25305460.453   132981096.096    25305467.703   103621661.994    25305467.941  
  25186552.203   132356300.289                   103134775.209    25186558.445  
  25832669.688   135751709.135    25832677.664   105780497.570    25832676.918  
  22717674.516   119382375.279    22717680.430    93025142.260                  
  20666278.820   108601930.458    20666284.492    84625042.839    20666284.480  
  23336475.469   122633919.109    23336481.711    95559026.506    23336481.324  
  20441760.141   107422214.279    20441765.035    83705672.239    20441764.957  
  21258409.445   111713735.739    21258413.520    87049712.893                  
  24310480.508   127752382.597    24310485.539    99547397.959                  
  23156822.727   121689862.508    23156832.000    94823395.349    23156832.023  
  23085139.953   121313127.741    23085148.234    94529880.436    23085148.176  
 22 01 08 01 03 04.0000000  0 12G01G06G07G10G13G14G15G17G19G21G24G30
  22078030.516   116020818.908    22078039.270    90405907.678    22078038.918  
  25304735.383   132977285.423    25304742.395   103618692.639    25304743.242  
  25187274.445   132360093.154                   103137730.689    25187279.953  
  25832866.828   135752745.750    25832874.801   105781305.324    25832873.965  
  22718209.813   119385186.145    22718215.438    93027332.542                  
  20666539.297   108603299.115    20666545.023    84626109.324    20666544.945  
  23336852.469   122635901.549    23336859.137    95560571.262    23336858.871  
  20441663.664   107421707.297    20441668.117    83705277.187    20441667.984  
  21257905.461   111711084.927    21257909.020    87047647.324                  
  24310920.852   127754693.563    24310924.938    99549198.702                  
  23156225.805   121686725.265    23156234.969    94820950.749    23156234.758  
  23085794.578   121316565.360    23085802.543    94532559.098    23085802.508  
 22 01 08 01 03 05.0000000  0 12G01G06G07G10G13G14G15G17G19G21G24G30
  22078103.969   116021203.855    22078112.457    90406207.635    22078112.246  
  25304010.750   132973474.601    25304016.898   103615723.172    25304018.012  
  25187997.055   132363885.929                   103140686.091    25188001.824  
  25833064.102   135753782.860    25833072.039   105782113.460    25833071.047  
  22718744.344   119387997.397    22718750.320    93029523.132                  
  20666799.813   108604668.161    20666805.359    84627176.119    20666805.375  
  23337230.000   122637884.467    23337236.465    95562116.389    23337236.023  
  20441567.297   107421200.817    20441572.137    83704882.524    20441572.090  
  21257400.984   111708434.555    21257404.625    87045582.097                  
  24311361.148   127757004.998    24311364.918    99550999.794                  
  23155629.094   121683588.306    23155638.383    94818506.360    23155637.879  
  23086448.492   121320003.187    23086456.633    94535237.922    23086456.926  
 22 01 08 01 03 06.0000000  0 12G01G06G07G10G13G14G15G17G19G21G24G30
  22078176.930   116021589.614    22078185.820    90406508.227    22078185.199  
  25303284.633   132969663.781    25303291.816   103612753.695    25303293.086  
  25188718.578   132367678.859                   103143641.620    25188723.461  
  25833261.664   135754820.568    25833269.402   105782922.064    25833268.469  
  22719279.711   119390809.066    22719285.301    93031714.042                  
  20667060.203   108606037.603    20667065.594    84628243.218    20667065.426  
  23337607.305   122639867.944    23337613.582    95563661.954    23337613.152  
  20441470.586   107420694.947    20441475.777    83704488.340    20441475.734  
  21256896.930   111705784.676    21256900.656    87043517.262                  
  24311800.461   127759316.822    24311804.730    99552801.216                  
  23155031.750   121680451.723    23155041.199    94816062.273    23155040.836  
  23087102.828   121323441.370    23087110.945    94537917.028    23087111.215  
 22 01 08 01 03 07.0000000  0 12G01G06G07G10G13G14G15G17G19G21G24G30
  22078250.906   116021976.150    22078259.676    90406809.426    22078259.055  
  25302559.516   132965852.906    25302566.543   103609784.175    25302568.070  
  25189440.656   132371471.844                   103146597.191    25189445.508  
  25833460.055   135755858.823    25833466.840   105783731.096    25833466.398  
  22719815.227   119393621.147    22719820.613    93033905.276                  
  20667320.914   108607407.432    20667326.797    84629310.613    20667326.563  
  23337984.859   122641851.912    23337991.742    95565207.904    23337991.184  
  20441374.461   107420189.600    20441379.785    83704094.566    20441379.648  
  21256392.727   111703135.262    21256396.594    87041452.784                  
  24312239.492   127761629.111    24312244.629    99554603.020                  
  23154435.477   121677315.480    23154444.465    94813618.447    23154443.715  
  23087757.227   121326879.784    23087765.102    94540596.311    23087765.215  
 22 01 08 01 03 08.0000000  0 12G01G06G07G10G13G14G15G17G19G21G24G30
  22078324.063   116022363.394    22078333.090    90407111.170    22078332.266  
  25301834.680   132962041.883    25301841.313   103606814.544    25301842.781  
  25190162.266   132375264.937                   103149552.841    25190166.895  
  25833657.250   135756897.617    25833664.703   105784540.548    25833664.125  
  22720350.563   119396433.634    22720355.766    93036096.834                  
  20667581.969   108608777.641    20667586.902    84630378.309    20667586.844  
  23338362.211   122643836.377    23338368.934    95566754.237    23338368.699  
  20441278.648   107419684.790    20441283.578    83703701.204    20441283.402  
  21255888.695   111700486.320    21255892.063    87039388.672                  
  24312680.500   127763941.779    24312684.996    99556405.106                  
  23153838.320   121674179.527    23153847.480    94811174.844    23153847.016  
  23088411.711   121330318.466    23088419.359    94543275.803    23088419.422  
 22 01 08 01 03 09.0000000  0 12G01G06G07G10G13G14G15G17G19G21G24G30
  22078397.570   116022751.450    22078406.543    90407413.552    22078405.957  
  25301109.102   132958230.859    25301116.254   103603844.912    25301117.711  
  25190883.898   132379058.083                   103152508.528    25190889.359  
  25833854.367   135757936.942    25833862.297   105785350.409    25833861.824  
  22720885.461   119399246.528    22720890.555    93038288.700                  
  20667842.469   108610148.267    20667848.391    84631446.330    20667848.281  
  23338739.820   122645821.385    23338746.902    95568300.994    23338746.941  
  20441182.883   107419180.582    20441187.996    83703308.322    20441187.992  
  21255384.445   111697837.864    21255388.188    87037324.938                  
  24313120.828   127766254.919    24313124.984    99558207.552                  
  23153241.852   121671043.943    23153250.566    94808731.533    23153250.379  
  23089065.813   121333757.427    23089073.965    94545955.514    23089074.184  
 22 01 08 01 03 10.0000000  0 12G01G06G07G10G13G14G15G17G19G21G24G30
  22078472.414   116023140.183    22078480.922    90407716.462    22078480.324  
  25300382.680   132954419.712    25300391.523   103600875.184    25300392.699  
  25191605.133   132382851.209                   103155464.214    25191610.930  
  25834052.383   135758976.846    25834059.848   105786160.720    25834059.832  
  22721420.570   119402059.809    22721425.969    93040480.869                  
  20668103.961   108611519.215    20668109.023    84632514.603    20668109.332  
  23339116.891   122647806.848    23339124.688    95569848.103    23339124.473  
  20441087.047   107418676.861    20441092.230    83702915.806    20441092.051  
  21254880.398   111695189.805    21254884.340    87035261.516                  
  24313561.703   127768568.434    24313565.621    99560010.298                  
  23152645.180   121667908.611    23152653.660    94806288.423    23152653.488  
  23089720.094   121337196.626    23089728.141    94548635.407    23089728.367  
 22 01 08 01 03 11.0000000  0 12G01G06G07G10G13G14G15G17G19G21G24G30
  22078546.125   116023529.738    22078555.027    90408020.015    22078554.379  
  25299657.758   132950608.498    25299666.063   103597905.406    25299666.398  
  25192327.172   132386644.441                   103158419.979    25192332.777  
  25834250.039   135760017.309    25834257.680   105786971.468    25834258.066  
  22721955.984   119404873.509    22721961.332    93042673.359                  
  20668364.547   108612890.578    20668370.277    84633583.198    20668370.129  
  23339495.695   122649792.819    23339502.625    95571395.614    23339502.578  
  20440991.031   107418173.710    20440996.352    83702523.745    20440995.836  
  21254376.625   111692542.257    21254380.559    87033198.490                  
  24314001.742   127770882.375    24314005.852    99561813.368                  
  23152048.734   121664773.652    23152057.305    94803845.596    23152057.168  
  23090375.102   121340636.096    23090382.801    94551315.516    23090382.688  
 22 01 08 01 03 12.0000000  0 12G01G06G07G10G13G14G15G17G19G21G24G30
  22078620.609   116023920.038    22078629.105    90408324.144    22078628.207  
  25298932.328   132946797.230    25298940.996   103594935.584    25298941.328  
  25193048.719   132390437.743                   103161375.801    25193054.258  
  25834448.281   135761058.272    25834455.668   105787782.604    25834455.961  
  22722491.094   119407687.597    22722496.934    93044866.141                  
  20668625.375   108614262.311    20668631.301    84634652.080    20668631.258  
  23339873.578   122651779.286    23339880.320    95572943.505    23339880.348  
  20440895.039   107417671.109    20440900.309    83702132.105    20440900.281  
  21253873.055   111689895.125    21253877.059    87031135.789                  
  24314441.133   127773196.730    24314446.664    99563616.755                  
  23151452.336   121661639.008    23151461.102    94801403.014    23151460.840  
  23091029.070   121344075.816    23091037.477    94553995.820    23091037.527  
 22 01 08 01 03 13.0000000  0 12G01G06G07G10G13G14G15G17G19G21G24G30
  22078694.820   116024311.103    22078703.434    90408628.870    22078702.430  
  25298207.102   132942985.858    25298215.367   103591965.685    25298216.016  
  25193770.414   132394231.140                   103164331.690    25193775.805  
  25834646.453   135762099.770    25834653.738   105788594.151    25834654.332  
  22723027.180   119410502.104    22723032.738    93047059.266                  
  20668886.930   108615634.432    20668892.102    84635721.266    20668891.973  
  23340251.859   122653766.323    23340258.594    95574491.845    23340258.480  
  20440800.047   107417169.052    20440804.828    83701740.895    20440804.922  
  21253369.016   111687248.471    21253373.023    87029073.466                  
  24314881.250   127775511.517    24314886.703    99565420.488                  
  23150856.266   121658504.664    23150864.754    94798960.667    23150864.457  
  23091683.945   121347515.835    23091691.809    94556676.355    23091692.043  
 22 01 08 01 03 14.0000000  0 12G01G06G07G10G13G14G15G17G19G21G24G30
  22078769.273   116024702.959    22078778.355    90408934.212    22078777.145  
  25297481.789   132939174.469    25297490.254   103588995.765    25297490.859  
  25194492.164   132398024.540                   103167287.593    25194497.984  
  25834845.313   135763141.892    25834851.754   105789406.183    25834852.020  
  22723563.227   119413317.038    22723568.117    93049252.729                  
  20669148.047   108617006.955    20669153.559    84636790.767    20669153.488  
  23340630.039   122655753.798    23340636.934    95576040.522    23340636.758  
  20440704.477   107416667.554    20440709.250    83701350.113    20440709.105  
  21252865.352   111684602.329    21252869.742    87027011.539                  
  24315322.867   127777826.736    24315327.305    99567224.538                  
  23150259.609   121655370.719    23150268.527    94796518.639    23150267.824  
  23092338.469   121350956.105    23092346.363    94559357.083    23092346.438  
 22 01 08 01 03 15.0000000  0 12G01G06G07G10G13G14G15G17G19G21G24G30
  22078844.086   116025095.574    22078853.211    90409240.145    22078852.250  
  25296756.391   132935362.999    25296764.762   103586025.779    25296765.543  
  25195214.477   132401818.070                   103170243.593    25195219.441  
  25835043.141   135764184.522    25835049.938   105790218.613    25835050.324  
  22724098.625   119416132.379    22724104.164    93051446.496                  
  20669409.266   108618379.868    20669414.551    84637860.567    20669414.477  
  23341008.063   122657741.850    23341015.516    95577589.657    23341014.828  
  20440608.984   107416166.624    20440613.621    83700959.779    20440613.555  
  21252362.406   111681956.628    21252365.969    87024949.957                  
  24315763.273   127780142.387    24315768.145    99569028.944                  
  23149662.961   121652237.068    23149672.453    94794076.836    23149671.738  
  23092993.297   121354396.657    23093001.703    94562038.035    23093001.770  
 22 01 08 01 03 16.0000000  0 12G01G06G07G10G13G14G15G17G19G21G24G30
  22078918.891   116025488.917    22078927.902    90409546.642    22078927.176  
  25296030.820   132931551.452    25296039.445   103583055.735    25296039.965  
  25195936.539   132405611.597                   103173199.593    25195941.457  
  25835241.906   135765227.706    25835248.676   105791031.482    25835248.781  
  22724634.477   119418948.138    22724640.098    93053640.587                  
  20669670.203   108619753.143    20669675.934    84638930.653    20669675.695  
  23341386.156   122659730.387    23341393.605    95579139.166    23341392.926  
  20440513.844   107415666.236    20440518.871    83700569.865    20440518.566  
  21251859.266   111679311.404    21251862.855    87022888.744                  
  24316203.766   127782458.450    24316208.781    99570833.669                  
  23149066.414   121649103.774    23149076.043    94791635.309    23149075.379  
  23093648.258   121357837.478    23093656.156    94564719.190    23093655.977  
 22 01 08 01 03 17.0000000  0 12G01G06G07G10G13G14G15G17G19G21G24G30
  22078993.258   116025883.033    22079003.313    90409853.748    22079002.414  
  25295306.117   132927739.815    25295314.371   103580085.622    25295314.707  
  25196657.500   132409405.224                   103176155.672    25196663.156  
  25835440.344   135766271.444    25835447.672   105791844.793    25835447.629  
  22725170.063   119421764.297    22725175.863    93055835.000                  
  20669932.172   108621126.821    20669937.480    84640001.045    20669937.344  
  23341765.086   122661719.416    23341771.930    95580689.055    23341771.430  
  20440418.961   107415166.375    20440423.898    83700180.368    20440423.633  
  21251355.742   111676666.633    21251359.605    87020827.879                  
  24316644.602   127784774.949    24316649.117    99572638.720                  
  23148470.836   121645970.746    23148479.449    94789193.993    23148479.266  
  23094302.695   121361278.574    23094311.133    94567400.565    23094311.063  
 22 01 08 01 03 18.0000000  0 12G01G06G07G10G13G14G15G17G19G21G24G30
  22079069.008   116026277.903    22079077.918    90410161.441    22079077.254  
  25294581.648   132923928.152    25294588.668   103577115.490    25294588.813  
  25197378.805   132413198.883                   103179111.776    25197385.039  
  25835639.266   135767315.739    25835646.078   105792658.529    25835645.863  
  22725706.297   119424580.854    22725711.836    93058029.725                  
  20670193.344   108622500.889    20670198.652    84641071.748    20670198.328  
  23342143.711   122663708.973    23342150.805    95582239.359    23342150.270  
  20440323.914   107414667.085    20440328.824    83699791.309    20440328.762  
  21250852.680   111674022.349    21250856.465    87018767.401                  
  24317085.969   127787091.883    24317090.613    99574444.128                  
  23147874.852   121642838.105    23147883.570    94786752.966    23147883.348  
  23094957.633   121364719.935    23094965.879    94570082.144    23094965.871  
 22 01 08 01 03 19.0000000  0 12G01G06G07G10G13G14G15G17G19G21G24G30
  22079144.422   116026673.553    22079153.082    90410469.744    22079152.516  
  25293855.703   132920116.394    25293863.848   103574145.291    25293863.578  
  25198101.297   132416992.688                   103182067.981    25198106.957  
  25835838.242   135768360.544    25835845.430   105793472.659    25835844.863  
  22726242.289   119427397.814    22726248.203    93060224.766                  
  20670454.953   108623875.336    20670460.184    84642142.745    20670459.949  
  23342522.477   122665699.038    23342529.422    95583790.060    23342528.883  
  20440228.906   107414168.332    20440234.039    83699402.671    20440233.750  
  21250349.320   111671378.505    21250353.383    87016707.262                  
  24317526.797   127789409.187    24317531.473    99576249.826                  
  23147278.453   121639705.778    23147287.441    94784312.186    23147287.051  
  23095612.875   121368161.574    23095621.027    94572763.938    23095621.242  
 22 01 08 01 03 20.0000000  0 12G01G06G07G10G13G14G15G17G19G21G24G30
  22079219.570   116027069.928    22079228.352    90410778.611    22079227.793  
  25293130.492   132916304.570    25293138.094   103571175.030    25293137.871  
  25198824.039   132420786.473                   103185024.174    25198828.930  
  25836036.953   135769405.951    25836043.883   105794287.261    25836043.008  
  22726778.445   119430215.190    22726784.172    93062420.117                  
  20670716.875   108625250.170    20670721.984    84643214.047    20670721.824  
  23342901.656   122667689.597    23342908.039    95585341.145    23342907.273  
  20440134.117   107413670.135    20440139.023    83699014.464    20440138.820  
  21249846.523   111668735.128    21249850.473    87014647.487                  
  24317967.813   127791726.929    24317972.547    99578055.865                  
  23146681.945   121636573.788    23146691.555    94781871.675    23146691.098  
  23096267.469   121371603.446    23096275.875    94575445.913    23096275.668  
 22 01 08 01 03 21.0000000  0 12G01G06G07G10G13G14G15G17G19G21G24G30
  22079295.586   116027467.097    22079304.031    90411088.093    22079303.656  
  25292405.367   132912492.649    25292413.164   103568204.695    25292412.367  
  25199545.477   132424580.375                   103187980.449    25199551.273  
  25836236.109   135770451.858    25836243.211   105795102.248    25836242.285  
  22727314.234   119433032.983    22727320.418    93064615.789                  
  20670977.898   108626625.375    20670983.367    84644285.638    20670983.227  
  23343279.945   122669680.665    23343287.426    95586892.629    23343286.410  
  20440039.688   107413172.503    20440044.273    83698626.704    20440044.379  
  21249343.500   111666092.249    21249347.234    87012588.106                  
  24318409.008   127794045.097    24318413.297    99579862.209                  
  23146085.828   121633442.090    23146095.473    94779431.397    23146095.066  
  23096922.445   121375045.574    23096931.270    94578128.089    23096930.910  
 22 01 08 01 03 22.0000000  0 12G01G06G07G10G13G14G15G17G19G21G24G30
  22079371.211   116027865.005    22079379.848    90411398.151    22079379.367  
  25291679.305   132908680.687    25291687.738   103565234.341    25291686.848  
  25200266.422   132428374.301                   103190936.749    25200273.254  
  25836435.422   135771498.331    25836442.293   105795917.686    25836441.051  
  22727850.828   119435851.153    22727856.758    93066811.761                  
  20671239.914   108628000.942    20671245.344    84645357.504    20671245.348  
  23343659.570   122671672.260    23343666.223    95588444.517    23343666.074  
  20439944.266   107412675.382    20439949.723    83698239.336    20439949.477  
  21248841.000   111663449.801    21248844.438    87010529.059                  
  24318850.289   127796363.677    24318854.590    99581668.900                  
  23145489.953   121630310.741    23145499.723    94776991.386    23145499.211  
  23097577.484   121378487.981    23097585.996    94580810.483    23097585.816  
 22 01 08 01 03 23.0000000  0 12G01G06G07G10G13G14G15G17G19G21G24G30
  22079446.641   116028263.676    22079455.809    90411708.805    22079455.180  
  25290954.578   132904868.645    25290962.328   103562263.918    25290961.242  
  25200989.461   132432168.299                   103193893.114    25200995.242  
  25836633.633   135772545.358    25836641.262   105796733.557    25836640.105  
  22728387.875   119438669.747    22728392.949    93069008.068                  
  20671501.789   108629376.945    20671507.129    84646429.717    20671507.031  
  23344038.219   122673664.306    23344044.840    95589996.760    23344044.656  
  20439850.148   107412178.848    20439855.375    83697852.421    20439855.418  
  21248337.789   111660807.826    21248341.727    87008470.374                  
  24319291.031   127798682.663    24319295.945    99583475.912                  
  23144894.172   121627179.709    23144903.984    94774551.624    23144903.047  
  23098232.859   121381930.690    23098241.469    94583493.114    23098241.238  
 22 01 08 01 03 24.0000000  0 12G01G06G07G10G13G14G15G17G19G21G24G30
  22079522.836   116028663.086    22079531.711    90412020.034    22079531.465  
  25290229.016   132901056.488    25290237.063   103559293.400    25290235.672  
  25201710.648   132435962.375                   103196849.530    25201717.410  
  25836833.867   135773592.908    25836841.016   105797549.825    25836839.969  
  22728923.766   119441488.716    22728929.504    93071204.681                  
  20671763.625   108630753.268    20671769.340    84647502.174    20671769.270  
  23344417.336   122675656.894    23344424.508    95591549.432    23344424.172  
  20439755.563   107411682.825    20439760.977    83697465.913    20439760.777  
  21247835.336   111658166.302    21247839.078    87006412.045                  
  24319732.992   127801002.086    24319737.527    99585283.247                  
  23144299.180   121624048.986    23144308.500    94772112.100    23144307.973  
  23098888.031   121385373.609    23098896.441    94586175.909    23098896.270  
 22 01 08 01 03 25.0000000  0 12G01G06G07G10G13G14G15G17G19G21G24G30
  22079598.938   116029063.297    22079607.695    90412331.888    22079607.238  
  25289503.352   132897244.319    25289511.801   103556322.893    25289510.785  
  25202432.203   132439756.535                   103199806.019    25202439.176  
  25837033.289   135774641.050    25837040.668   105798366.568    25837039.613  
  22729460.422   119444308.116    22729465.855    93073401.616                  
  20672025.734   108632130.026    20672031.266    84648574.972    20672031.227  
  23344797.055   122677650.025    23344803.883    95593102.514    23344803.555  
  20439661.516   107411187.386    20439666.703    83697079.858    20439666.363  
  21247332.273   111655525.260    21247336.422    87004354.092                  
  24320174.430   127803321.979    24320179.098    99587090.981                  
  23143703.328   121620918.631    23143712.578    94769672.861    23143712.238  
  23099543.211   121388816.861    23099551.445    94588858.961    23099551.230  
 22 01 08 01 03 26.0000000  0 12G01G06G07G10G13G14G15G17G19G21G24G30
  22079675.406   116029464.224    22079684.012    90412644.296    22079683.344  
  25288778.398   132893432.061    25288786.324   103553352.313    25288784.949  
  25203154.328   132443550.691                   103202762.502    25203161.805  
  25837233.039   135775689.698    25837240.371   105799183.695    25837239.453  
  22729996.797   119447127.906    22730002.523    93075598.852                  
  20672287.711   108633507.157    20672293.250    84649648.066    20672292.988  
  23345175.648   122679643.582    23345182.977    95594655.942    23345182.680  
  20439567.125   107410692.478    20439572.035    83696694.212    20439571.863  
  21246829.891   111652884.680    21246833.867    87002296.498                  
  24320615.766   127805642.199    24320620.543    99588898.933                  
  23143107.172   121617788.583    23143116.746    94767233.861    23143116.363  
  23100198.422   121392260.301    23100206.949    94591542.163    23100206.770  
 22 01 08 01 03 27.0000000  0 12G01G06G07G10G13G14G15G17G19G21G24G30
  22079751.695   116029865.917    22079760.313    90412957.300    22079759.480  
  25288052.891   132889619.688    25288060.809   103550381.633    25288059.785  
  25203876.156   132447344.950                   103205719.054    25203883.684  
  25837432.375   135776738.885    25837440.227   105800001.230    25837439.363  
  22730533.383   119449948.103    22730539.469    93077796.406                  
  20672549.672   108634884.653    20672555.426    84650721.440    20672555.242  
  23345555.891   122681637.670    23345562.516    95596209.784    23345562.195  
  20439473.375   107410198.107    20439478.629    83696308.992    20439478.398  
  21246327.938   111650244.564    21246331.539    87000239.265                  
  24321057.352   127807962.898    24321062.180    99590707.257                  
  23142512.531   121614658.846    23142521.313    94764795.110    23142520.602  
  23100853.961   121395704.047    23100862.242    94594225.600    23100862.027  
 22 01 08 01 03 28.0000000  0 12G01G06G07G10G13G14G15G17G19G21G24G30
  22079828.367   116030268.425    22079837.219    90413270.945    22079836.805  
  25287328.742   132885807.330    25287335.066   103547410.973    25287333.898  
  25204598.172   132451139.276                   103208675.672    25204605.230  
  25837632.281   135777788.706    25837639.730   105800819.257    25837638.809  
  22731070.234   119452768.764    22731075.949    93079994.319                  
  20672812.164   108636262.582    20672817.512    84651795.146    20672817.895  
  23345935.156   122683632.335    23345942.266    95597764.071    23345941.672  
  20439379.734   107409704.345    20439384.523    83695924.240    20439384.379  
  21245825.461   111647604.953    21245829.418    86998182.429                  
  24321499.242   127810284.020    24321503.973    99592515.943                  
  23141916.477   121611529.466    23141925.887    94762356.636    23141925.504  
  23101509.078   121399148.080    23101517.777    94596909.259    23101517.652  
 22 01 08 01 03 29.0000000  0 12G01G06G07G10G13G14G15G17G19G21G24G30
  22079905.773   116030671.678    22079914.215    90413585.163    22079913.992  
  25286603.094   132881994.938    25286609.980   103544440.287    25286609.180  
  25205320.273   132454933.711                   103211632.366    25205327.594  
  25837832.516   135778839.009    25837839.473   105801637.664    25837838.254  
  22731606.977   119455589.788    22731612.820    93082192.511                  
  20673074.305   108637640.872    20673079.832    84652869.143    20673079.730  
  23346315.102   122685627.448    23346321.297    95599318.699    23346320.988  
  20439285.547   107409211.116    20439290.359    83695539.907    20439290.438  
  21245323.039   111644965.784    21245327.035    86996125.939                  
  24321941.320   127812605.558    24321945.207    99594324.913                  
  23141320.961   121608400.458    23141330.438    94759918.450    23141329.770  
  23102164.148   121402592.375    23102172.723    94599593.128    23102172.133  
 22 01 08 01 03 30.0000000  0 12G01G06G07G10G13G14G15G17G19G21G24G30
  22079982.461   116031075.664    22079990.699    90413899.959    22079990.375  
  25285877.141   132878182.356    25285884.090   103541469.443    25285883.445  
  25206042.477   132458728.228                   103214589.131    25206049.500  
  25838032.203   135779889.839    25838039.645   105802456.491    25838038.559  
  22732143.898   119458411.199    22732149.527    93084391.017                  
  20673336.531   108639019.495    20673342.570    84653943.397    20673342.547  
  23346695.195   122687623.098    23346701.344    95600873.749    23346701.098  
  20439191.633   107408718.394    20439196.770    83695155.971    20439196.781  
  21244821.148   111642327.077    21244824.707    86994069.801                  
  24322382.617   127814927.513    24322387.078    99596134.218                  
  23140726.000   121605271.709    23140735.367    94757480.464    23140734.645  
  23102819.875   121406036.892    23102828.320    94602277.161    23102827.926  
 22 01 08 01 03 31.0000000  0 12G01G06G07G10G13G14G15G17G19G21G24G30
  22080059.320   116031480.428    22080067.848    90414215.360    22080067.082  
  25285152.102   132874369.754    25285158.754   103538498.582    25285158.496  
  25206764.406   132462522.6671                  103217545.8351   25206771.254  
  25838232.625   135780941.263    25838239.754   105803275.788    25838238.707  
  22732680.836   119461233.035    22732686.523    93086589.839                  
  20673599.086   108640398.598    20673604.535    84655018.022    20673604.262  
  23347074.313   122689619.218    23347081.020    95602429.169    23347081.258  
  20439098.133   107408226.269    20439103.246    83694772.496    20439103.234  
  21244319.203   111639688.864    21244322.738    86992014.050                  
  24322824.359   127817249.876    24322828.941    99597943.859                  
  23140129.922   121602143.318    23140139.578    94755042.755    23140139.254  
  23103475.820   121409481.740    23103484.016    94604961.459    23103484.020  
 22 01 08 01 03 32.0000000  0 12G01G06G07G10G13G14G15G17G19G21G24G30
  22080136.188   116031885.922    22080144.727    90414531.331    22080144.176  
  25284425.984   132870557.042    25284433.250   103535527.641    25284433.594  
  25207487.148   132466317.220                   103220502.628    25207493.625  
  25838432.563   135781993.214    25838440.418   105804095.495    25838439.363  
  22733218.000   119464055.262    22733223.746    93088788.981                  
  20673861.711   108641778.006    20673866.996    84656092.883    20673866.867  
  23347454.477   122691615.867    23347461.113    95603984.999    23347461.285  
  20439004.430   107407734.644    20439009.688    83694389.406    20439009.672  
  21243817.102   111637051.068    21243821.023    86989958.624                  
  24323266.883   127819572.643    24323271.141    99599753.806                  
  23139534.570   121599015.257    23139544.270    94752605.306    23139543.863  
  23104131.273   121412926.772    23104139.629    94607645.895    23104139.199  
 22 01 08 01 03 33.0000000  0 12G01G06G07G10G13G14G15G17G19G21G24G30
  22080213.859   116032292.221    22080222.398    90414847.926    22080221.621  
  25283699.516   132866744.320    25283707.371   103532556.692    25283708.094  
  25208208.578   132470111.866                   103223459.510    25208215.762  
  25838633.492   135783045.669    25838640.012   105804915.598    25838638.977  
  22733754.938   119466877.910    22733760.832    93090988.449                  
  20674124.000   108643157.830    20674129.930    84657168.069    20674129.871  
  23347834.695   122693613.068    23347841.133    95605541.258    23347841.145  
  20438911.297   107407243.605    20438916.082    83694006.782    20438916.047  
  21243314.898   111634413.769    21243319.066    86987903.583                  
  24323708.789   127821895.837    24323712.844    99601564.118                  
  23138939.797   121595887.511    23138948.852    94750168.104    23138948.273  
  23104786.734   121416372.106    23104795.406    94610330.570    23104795.188  
 22 01 08 01 03 34.0000000  0 12G01G06G07G10G13G14G15G17G19G21G24G30
  22080291.984   116032699.227    22080300.078    90415165.069    22080299.465  
  25282974.477   132862931.523    25282981.652   103529585.679    25282982.559  
  25208931.570   132473906.613                   103226416.461    25208938.133  
  25838833.766   135784098.693    25838840.656   105805736.148    25838839.691  
  22734292.953   119469700.953    22734298.297    93093188.227                  
  20674386.867   108644538.012    20674392.586    84658243.542    20674392.613  
  23348214.266   122695610.690    23348221.219    95607097.847    23348220.969  
  20438817.906   107406753.103    20438822.754    83693624.571    20438822.734  
  21242813.242   111631776.934    21242817.250    86985848.910                  
  24324150.719   127824219.469    24324155.059    99603374.749                  
  23138345.234   121592760.081    23138354.281    94747731.142    23138353.730  
  23105442.445   121419817.697    23105450.957    94613015.442    23105450.883  
 22 01 08 01 03 35.0000000  0 12G01G06G07G10G13G14G15G17G19G21G24G30
  22080368.695   116033107.030    22080377.652    90415482.840    22080376.895  
  25282248.625   132859118.618    25282256.297   103526614.579    25282256.902  
  25209652.953   132477701.360                   103229373.395    25209659.980  
  25839034.195   135785152.292    25839041.465   105806557.143    25839040.488  
  22734829.141   119472524.408    22734835.402    93095388.319                  
  20674649.992   108645918.609    20674655.207    84659319.328    20674654.965  
  23348594.633   122697608.886    23348601.063    95608654.879    23348600.805  
  20438725.039   107406263.158    20438729.352    83693242.801    20438728.945  
  21242311.844   111629140.550    21242315.629    86983794.580                  
  24324592.828   127826543.545    24324597.543    99605185.688                  
  23137750.539   121589633.021    23137758.844    94745294.473    23137758.324  
  23106098.438   121423263.573    23106106.742    94615700.546    23106106.785  
 22 01 08 01 03 36.0000000  0 12G01G06G07G10G13G14G15G17G19G21G24G30
  22080446.648   116033515.590    22080455.441    90415801.198    22080454.918  
  25281522.258   132855305.727    25281530.621   103523643.488    25281531.164  
  25210375.266   132481496.164                   103232330.376    25210382.262  
  25839233.828   135786206.455    25839241.914   105807378.565    25839240.676  
  22735366.844   119475348.280    22735372.633    93097588.744                  
  20674912.352   108647299.574    20674918.430    84660395.403    20674918.125  
  23348975.102   122699607.535    23348981.914    95610212.269    23348981.555  
  20438631.711   107405773.746    20438636.102    83692861.439    20438636.078  
  21241809.836   111626504.640    21241813.824    86981740.629                  
  24325035.664   127828868.005    24325039.762    99606996.937                  
  23137155.102   121586506.239    23137163.816    94742858.023    23137163.258  
  23106754.313   121426709.699    23106762.242    94618385.836    23106762.121  
 22 01 08 01 03 37.0000000  0 12G01G06G07G10G13G14G15G17G19G21G24G30
  22080524.203   116033924.913    22080533.207    90416120.155    22080532.871  
  25280796.578   132851492.716    25280805.219   103520672.309    25280805.301  
  25211097.797   132485291.091                   103235287.469    25211104.195  
  25839434.688   135787261.190    25839442.496   105808200.427    25839441.316  
  22735903.750   119478172.565    22735910.223    93099789.491                  
  20675175.195   108648680.951    20675180.824    84661471.806    20675180.465  
  23349355.648   122701606.732    23349362.258    95611770.084    23349361.734  
  20438538.602   107405284.953    20438543.484    83692480.561    20438543.324  
  21241308.719   111623869.243    21241312.074    86979687.072                  
  24325478.289   127831192.889    24325482.633    99608808.525                  
  23136560.539   121583379.856    23136569.000    94740421.882    23136568.723  
  23107410.094   121430156.130    23107418.414    94621071.371    23107418.496  
 22 01 08 01 03 38.0000000  0 12G01G06G07G10G13G14G15G17G19G21G24G30
  22080602.484   116034335.007    22080611.254    90416439.714    22080610.680  
  25280070.875   132847679.631    25280079.527   103517701.072    25280079.707  
  25211820.219   132489086.023                   103238244.560    25211826.375  
  25839635.336   135788316.383    25839643.305   105809022.658    25839642.016  
  22736441.695   119480997.229    22736447.922    93101990.526                  
  20675437.992   108650062.701    20675443.527    84662548.496    20675443.453  
  23349736.430   122703606.430    23349742.539    95613328.294    23349742.188  
  20438445.414   107404796.661    20438450.582    83692100.074    20438450.121  
  21240807.375   111621234.280    21240810.820    86977633.856                  
  24325920.789   127833518.189    24325924.742    99610620.437                  
  23135965.227   121580253.799    23135973.844    94737985.990    23135973.801  
  23108066.000   121433602.805    23108074.082    94623757.092    23108073.980  
 22 01 08 01 03 39.0000000  0 12G01G06G07G10G13G14G15G17G19G21G24G30
  22080680.727   116034745.850    22080689.379    90416759.848    22080688.801  
  25279345.203   132843866.429    25279353.969   103514729.741    25279354.309  
  25212541.742   132492881.124                   103241201.794    25212547.949  
  25839835.734   135789372.127    25839844.074   105809845.307    25839843.273  
  22736979.844   119483822.275    22736985.195    93104191.863                  
  20675701.172   108651444.799    20675706.789    84663625.449    20675706.633  
  23350116.578   122705606.628    23350123.254    95614886.887    23350123.039  
  20438352.836   107404308.894    20438357.746    83691719.999    20438357.426  
  21240306.000   111618599.778    21240309.738    86975580.999                  
  24326363.781   127835843.932    24326367.445    99612432.732                  
  23135370.570   121577127.995    23135379.059    94735550.290    23135378.949  
  23108721.789   121437049.704    23108729.563    94626442.985    23108729.691  
 22 01 08 01 03 40.0000000  0 12G01G06G07G10G13G14G15G17G19G21G24G30
  22080759.125   116035157.470    22080767.633    90417080.595    22080767.344  
  25278620.242   132840053.297    25278628.148   103511758.460    25278628.488  
  25213264.547   132496676.246                   103244159.027    25213270.516  
  25840037.453   135790428.504    25840044.703   105810668.457    25840043.781  
  22737516.930   119486647.783    22737522.949    93106393.546                  
  20675964.414   108652827.343    20675969.664    84664702.759    20675969.641  
  23350497.648   122707607.354    23350504.109    95616445.888    23350503.891  
  20438260.109   107403821.738    20438265.070    83691340.394    20438264.895  
  21239804.508   111615965.766    21239808.441    86973528.521                  
  24326805.813   127838170.118    24326810.266    99614245.354                  
  23134775.531   121574002.609    23134784.289    94733114.927    23134784.172  
  23109377.414   121440496.937    23109385.383    94629129.140    23109385.441  
 22 01 08 01 03 41.0000000  0 12G01G06G07G10G13G14G15G17G19G21G24G30
  22080837.406   116035569.814    22080845.984    90417401.903    22080845.414  
  25277894.227   132836239.988    25277902.383   103508787.043    25277902.691  
  25213986.680   132500471.383                   103247116.269    25213992.285  
  25840239.367   135791485.337    25840246.340   105811491.958    25840245.242  
  22738054.734   119489473.675    22738060.426    93108595.547                  
  20676227.500   108654210.220    20676233.117    84665780.326    20676233.082  
  23350878.594   122709608.533    23350884.648    95618005.246    23350884.391  
  20438167.508   107403335.101    20438172.441    83690961.201    20438172.160  
  21239303.688   111613332.206    21239307.066    86971476.396                  
  24327248.703   127840496.667    24327253.078    99616058.271                  
  23134180.797   121570877.501    23134189.457    94730679.775    23134189.492  
  23110034.148   121443944.386    23110041.906    94631815.463    23110042.152  
 22 01 08 01 03 42.0000000  0 12G01G06G07G10G13G14G15G17G19G21G24G30
  22080915.531   116035982.920    22080924.504    90417723.805    22080923.969  
  25277168.625   132832426.624    25277177.031   103505815.579    25277177.445  
  25214707.352   132504266.523                   103250073.510    25214714.715  
  25840439.914   135792542.799    25840447.574   105812315.957    25840446.883  
  22738592.461   119492299.954    22738598.707    93110797.833                  
  20676490.516   108655593.492    20676496.371    84666858.198    20676495.980  
  23351259.531   122711610.267    23351265.715    95619565.041    23351265.465  
  20438074.820   107402849.016    20438079.398    83690582.433    20438079.281  
  21238801.844   111610699.095    21238805.863    86969424.623                  
  24327690.906   127842823.645    24327696.031    99617871.494                  
  23133586.414   121567752.745    23133594.926    94728244.904    23133594.973  
  23110689.742   121447392.109    23110697.953    94634501.997    23110697.852  
 22 01 08 01 03 43.0000000  0 12G01G06G07G10G13G14G15G17G19G21G24G30
  22080994.344   116036396.835    22081003.375    90418046.340    22081002.883  
  25276443.031   132828613.204    25276450.750   103502844.074    25276451.375  
  25215430.180   132508061.866                   103253030.913    25215436.961  
  25840640.016   135793600.768    25840648.484   105813140.358    25840647.730  
  22739130.617   119495126.649    22739136.770    93113000.452                  
  20676754.469   108656977.169    20676759.613    84667936.386    20676759.332  
  23351640.719   122713612.500    23351646.695    95621125.227    23351646.551  
  20437982.148   107402363.492    20437987.504    83690204.100    20437987.414  
  21238301.297   111608066.477    21238305.598    86967373.239                  
  24328134.742   127845151.054    24328138.801    99619685.062                  
  23132991.852   121564628.281    23133000.141    94725810.259    23133000.082  
  23111345.516   121450840.115    23111353.918    94637188.758    23111354.012  
 22 01 08 01 03 44.0000000  0 12G01G06G07G10G13G14G15G17G19G21G24G30
  22081073.094   116036811.468    22081082.176    90418369.429    22081081.824  
  25275717.156   132824799.700    25275725.047   103499872.515    25275725.891  
  25216152.813   132511857.184                   103255988.303    25216158.715  
  25840841.594   135794659.262    25840850.063   105813965.165    25840849.250  
  22739668.633   119497953.757    22739674.465    93115203.396                  
  20677017.344   108658361.221    20677022.836    84669014.877    20677022.832  
  23352021.313   122715615.214    23352027.617    95622685.782    23352027.281  
  20437890.305   107401878.522    20437895.156    83689826.204    20437895.219  
  21237800.695   111605434.345    21237804.875    86965322.225                  
  24328577.461   127847478.917    24328581.695    99621498.968                  
  23132396.945   121561504.194    23132405.836    94723375.910    23132406.117  
  23112002.164   121454288.370    23112010.219    94639875.711    23112010.430  
 22 01 08 01 03 45.0000000  0 12G01G06G07G10G13G14G15G17G19G21G24G30
  22081152.141   116037226.868    22081161.004    90418693.114    22081161.090  
  25274991.875   132820986.160    25274999.242   103496900.929    25275000.051  
  25216875.180   132515652.645                   103258945.812    25216881.082  
  25841043.430   135795718.305    25841051.543   105814790.385    25841050.379  
  22740206.383   119500781.269    22740212.508    93117406.649                  
  20677281.273   108659745.659    20677286.355    84670093.660    20677286.168  
  23352403.227   122717618.464    23352408.809    95624246.752    23352408.699  
  20437798.164   107401394.117    20437802.965    83689448.743    20437802.930  
  21237299.844   111602802.658    21237303.441    86963271.563                  
  24329020.453   127849807.122    24329024.938    99623313.172                  
  23131802.203   121558380.453    23131811.344    94720941.832    23131811.262  
  23112657.852   121457736.910    23112666.375    94642562.886    23112666.684  
 22 01 08 01 03 46.0000000  0 12G01G06G07G10G13G14G15G17G19G21G24G30
  22081231.492   116037643.031    22081240.621    90419017.399    22081240.383  
  25274266.250   132817172.572    25274273.602   103493929.303    25274274.602  
  25217597.766   132519448.099                   103261903.317    25217603.652  
  25841245.172   135796777.913    25841253.473   105815616.046    25841252.195  
  22740744.602   119503609.164    22740750.688    93119610.210                  
  20677544.063   108661130.480    20677549.602    84671172.736    20677549.508  
  23352783.906   122719622.180    23352790.090    95625808.093    23352789.871  
  20437705.922   107400910.243    20437710.813    83689071.700    20437711.012  
  21236799.023   111600171.438    21236803.047    86961221.253                  
  24329463.891   127852135.838    24329467.664    99625127.726                  
  23131208.656   121555257.001    23131216.895    94718507.974    23131216.844  
  23113314.680   121461185.711    23113322.703    94645250.262    23113322.957  
 22 01 08 01 03 47.0000000  0 12G01G06G07G10G13G14G15G17G19G21G24G30
  22081311.188   116038059.930    22081319.398    90419342.251    22081319.258  
  25273540.273   132813358.864    25273547.875   103490957.581    25273548.914  
  25218318.828   132523243.591                   103264860.844    25218325.816  
  25841446.930   135797838.032    25841455.152   105816442.110    25841453.758  
  22741282.711   119506437.481    22741289.258    93121814.083                  
  20677808.016   108662515.666    20677813.770    84672252.100    20677813.637  
  23353165.203   122721626.432    23353171.836    95627369.846    23353171.914  
  20437614.094   107400426.891    20437619.008    83688695.065    20437619.098  
  21236298.344   111597540.678    21236302.289    86959171.314                  
  24329906.438   127854464.907    24329911.047    99626942.603                  
  23130614.016   121552133.895    23130622.699    94716074.389    23130622.406  
  23113970.664   121464634.742    23113978.840    94647937.823    23113979.398  
 22 01 08 01 03 48.0000000  0 12G01G06G07G10G13G14G15G17G19G21G24G30
  22081390.375   116038477.628    22081399.434    90419667.729    22081399.105  
  25272814.602   132809545.120    25272822.621   103487985.835    25272823.656  
  25219041.656   132527039.166                   103267818.436    25219047.988  
  25841648.195   135798898.743    25841657.090   105817268.642    25841655.637  
  22741821.180   119509266.221    22741827.313    93124018.295                  
  20678071.344   108663901.268    20678077.207    84673331.791    20678076.910  
  23353546.281   122723631.207    23353552.758    95628932.006    23353552.930  
  20437522.156   107399944.127    20437526.961    83688318.883    20437526.688  
  21235797.289   111594910.402    21235801.676    86957121.754                  
  24330349.852   127856794.420    24330354.219    99628757.805                  
  23130019.672   121549011.096    23130028.148    94713641.042    23130027.805  
  23114626.820   121468084.064    23114635.230    94650625.603    23114635.688  
 22 01 08 01 03 49.0000000  0 12G01G06G07G10G13G14G15G17G19G21G24G30
  22081470.250   116038896.047    22081479.184    90419993.768    22081478.664  
  25272088.500   132805731.284    25272096.883   103485014.007    25272097.492  
  25219764.727   132530834.842                   103270776.093    25219770.703  
  25841850.359   135799960.002    25841858.680   105818095.604    25841856.988  
  22742359.188   119512095.307    22742365.648    93126222.788                  
  20678335.039   108665287.215    20678340.895    84674411.752    20678340.555  
  23353928.469   122725636.436    23353934.828    95630494.523    23353934.895  
  20437430.297   107399461.872    20437435.285    83687943.098    20437435.008  
  21235297.414   111592280.554    21235301.410    86955072.522                  
  24330793.023   127859124.348    24330797.547    99630573.329                  
  23129425.305   121545888.626    23129434.039    94711207.945    23129433.664  
  23115283.578   121471533.625    23115291.504    94653313.575    23115291.766  
 22 01 08 01 03 50.0000000  0 12G01G06G07G10G13G14G15G17G19G21G24G30
  22081550.023   116039315.227    22081558.793    90420320.403    22081558.449  
  25271362.906   132801917.336    25271370.977   103482042.098    25271371.867  
  25220487.313   132534630.555                   103273733.785    25220493.461  
  25842052.836   135801021.751    25842061.293   105818922.942    25842059.547  
  22742898.016   119514924.813    22742903.684    93128427.598                  
  20678599.328   108666673.540    20678604.512    84675492.006    20678604.277  
  23354309.703   122727642.170    23354316.586    95632057.434    23354316.348  
  20437338.539   107398980.173    20437343.430    83687567.748    20437343.234  
  21234796.836   111589651.202    21234801.129    86953023.674                  
  24331236.508   127861454.640    24331241.215    99632389.142                  
  23128830.859   121542766.463    23128839.992    94708775.094    23128839.758  
  23115940.328   121474983.451    23115948.230    94656001.749    23115948.066  
 22 01 08 01 03 51.0000000  0 12G01G06G07G10G13G14G15G17G19G21G24G30
  22081630.250   116039735.216    22081639.008    90420647.666    22081638.723  
  25270637.969   132798103.414    25270645.090   103479070.207    25270645.992  
  25221208.836   132538426.335                   103276691.535    25221215.156  
  25842254.438   135802084.115    25842263.063   105819750.756    25842261.199  
  22743436.320   119517754.761    22743442.348    93130632.759                  
  20678862.891   108668060.276    20678868.922    84676572.578    20678868.586  
  23354692.328   122729648.456    23354698.195    95633620.778    23354697.816  
  20437247.063   107398499.043    20437252.090    83687192.843    20437251.926  
  21234296.836   111587022.321    21234300.605    86950975.197                  
  24331679.906   127863785.406    24331684.508    99634205.329                  
  23128237.445   121539644.700    23128246.082    94706342.550    23128245.898  
  23116596.680   121478433.588    23116604.965    94658690.168    23116605.055  
 22 01 08 01 03 52.0000000  0 12G01G06G07G10G13G14G15G17G19G21G24G30
  22081710.359   116040155.944    22081718.793    90420975.508    22081718.180  
  25269912.336   132794289.374    25269919.266   103476098.230    25269920.254  
  25221931.172   132542222.108                   103279649.292    25221937.898  
  25842456.977   135803146.971    25842465.031   105820578.955    25842463.398  
  22743974.469   119520585.092    22743981.168    93132838.204                  
  20679126.945   108669447.396    20679132.703    84677653.448    20679132.262  
  23355073.742   122731655.226    23355079.941    95635184.498    23355079.793  
  20437155.727   107398018.466    20437160.785    83686818.368    20437160.668  
  21233796.539   111584393.897    21233800.406    86948927.075                  
  24332123.281   127866116.605    24332128.414    99636021.840                  
  23127642.688   121536523.244    23127652.016    94703910.245    23127651.500  
  23117253.227   121481883.956    23117261.418    94661378.766    23117261.520  
 22 01 08 01 03 53.0000000  0 12G01G06G07G10G13G14G15G17G19G21G24G30
  22081790.234   116040577.390    22081798.887    90421303.909    22081798.340  
  25269185.813   132790475.233    25269193.797   103473126.180    25269194.473  
  25222654.141   132546017.994                   103282607.126    25222659.813  
  25842659.016   135804210.407    25842667.293   105821407.602    25842665.602  
  22744514.000   119523415.815    22744519.789    93135043.958                  
  20679390.805   108670834.896    20679396.121    84678734.619    20679395.875  
  23355455.391   122733662.473    23355462.113    95636748.584    23355461.996  
  20437064.453   107397538.419    20437069.246    83686444.308    20437069.090  
  21233296.711   111581765.943    21233300.492    86946879.322                  
  24332567.125   127868448.151    24332572.027    99637838.626                  
  23127049.063   121533402.112    23127058.184    94701478.197    23127057.949  
  23117909.992   121485334.581    23117918.008    94664067.563    23117918.023  
 22 01 08 01 03 54.0000000  0 12G01G06G07G10G13G14G15G17G19G21G24G30
  22081870.656   116040999.626    22081879.477    90421632.921    22081878.891  
  25268459.883   132786661.043    25268467.828   103470154.096    25268468.754  
  25223376.672   132549814.002                   103285565.045    25223382.168  
  25842861.719   135805274.352    25842869.547   105822236.658    25842867.801  
  22745052.477   119526246.970    22745058.199    93137250.049                  
  20679654.945   108672222.768    20679660.285    84679816.076    20679660.246  
  23355838.086   122735670.297    23355844.332    95638313.124    23355844.230  
  20436973.266   107397058.931    20436978.121    83686070.676    20436977.766  
  21232796.914   111579138.468    21232800.285    86944831.939                  
  24333011.227   127870780.205    24333015.719    99639655.790                  
  23126454.664   121530281.292    23126464.297    94699046.388    23126464.055  
  23118566.789   121488785.490    23118574.805    94666756.581    23118574.668  
 22 01 08 01 03 55.0000000  0 12G01G06G07G10G13G14G15G17G19G21G24G30
  22081950.672   116041422.638    22081959.633    90421962.545    22081958.848  
  25267734.695   132782846.807    25267742.180   103467181.980    25267743.023  
  25224099.281   132553609.987                   103288522.956    25224104.777  
  25843064.125   135806338.865    25843072.359   105823066.152    25843070.492  
  22745591.602   119529078.497    22745597.348    93139456.435                  
  20679919.266   108673611.026    20679924.621    84680897.836    20679924.652  
  23356219.758   122737678.525    23356226.344    95639877.973    23356226.461  
  20436882.156   107396579.970    20436886.871    83685697.463    20436886.855  
  21232296.727   111576511.443    21232300.180    86942784.909                  
  24333455.227   127873112.594    24333459.797    99641473.274                  
  23125860.531   121527160.779    23125870.605    94696614.826    23125870.582  
  23119223.758   121492236.620    23119231.523    94669445.769    23119231.586  
 22 01 08 01 03 56.0000000  0 12G01G06G07G10G13G14G15G17G19G21G24G30
  22082031.352   116041846.328    22082040.277    90422292.695    22082039.684  
  25267008.438   132779032.469    25267016.918   103464209.775    25267017.758  
  25224822.016   132557406.038                   103291480.914    25224826.457  
  25843266.727   135807403.912    25843274.090   105823896.075    25843272.691  
  22746130.406   119531910.391    22746135.910    93141663.092                  
  20680183.250   108674999.631    20680188.820    84681979.865    20680188.602  
  23356602.602   122739687.305    23356608.449    95641443.251    23356608.484  
  20436790.750   107396101.550    20436796.000    83685324.671    20436795.848  
  21231796.656   111573884.855    21231800.676    86940738.215                  
  24333898.828   127875445.395    24333903.262    99643291.029                  
  23125267.367   121524040.634    23125276.809    94694183.548    23125276.711  
  23119880.539   121495688.005    23119888.344    94672135.158    23119888.383  
 22 01 08 01 03 57.0000000  0 12G01G06G07G10G13G14G15G17G19G21G24G30
  22082112.508   116042270.843    22082121.023    90422623.482    22082120.711  
  25266282.930   132775218.108    25266290.258   103461237.554    25266291.246  
  25225544.531   132561202.207                   103294438.963    25225549.090  
  25843470.234   135808469.516    25843477.168   105824726.412    25843475.832  
  22746669.844   119534742.732    22746674.957    93143870.100                  
  20680447.742   108676388.646    20680453.141    84683062.217    20680453.129  
  23356984.742   122741696.549    23356990.844    95643008.895    23356990.559  
  20436699.875   107395623.718    20436704.570    83684952.333    20436704.477  
  21231296.953   111571258.776    21231300.965    86938691.919                  
  24334343.195   127877778.662    24334347.676    99645109.157                  
  23124673.773   121520920.811    23124682.879    94691752.520    23124682.926  
  23120537.031   121499139.693    23120545.051    94674824.788    23120545.176  
 22 01 08 01 03 58.0000000  0 12G01G06G07G10G13G14G15G17G19G21G24G30
  22082193.414   116042696.133    22082202.254    90422954.876    22082201.805  
  25265557.156   132771403.682    25265564.711   103458265.268    25265565.789  
  25226266.859   132564998.398                   103297397.032    25226271.594  
  25843673.281   135809535.637    25843680.156   105825557.143    25843678.820  
  22747208.961   119537575.510    22747214.523    93146077.464                  
  20680712.539   108677778.096    20680717.676    84684144.905    20680717.805  
  23357367.344   122743706.367    23357373.359    95644574.993    23357372.621  
  20436608.898   107395146.470    20436613.875    83684580.446    20436613.758  
  21230797.703   111568633.195    21230801.824    86936646.017                  
  24334786.898   127880112.358    24334791.586    99646927.609                  
  23124080.578   121517801.337    23124089.277    94689321.758    23124089.273  
  23121194.023   121502591.676    23121202.109    94677514.645    23121202.395  
 22 01 08 01 03 59.0000000  0 12G01G06G07G10G13G14G15G17G19G21G24G30
  22082274.688   116043122.142    22082283.270    90423286.836    22082282.578  
  25264830.875   132767589.140    25264838.590   103455292.895    25264840.039  
  25226989.164   132568794.704                   103300355.192    25226994.250  
  25843876.523   135810602.351    25843883.117   105826388.356    25843881.723  
  22747748.313   119540408.646    22747753.648    93148285.102                  
  20680976.406   108679167.875    20680981.738    84685227.854    20680981.512  
  23357750.133   122745716.677    23357755.984    95646141.471    23357755.391  
  20436518.375   107394669.724    20436523.277    83684208.960    20436523.184  
  21230298.422   111566008.036    21230301.813    86934600.439                  
  24335231.719   127882446.425    24335235.867    99648746.352                  
  23123487.453   121514682.165    23123495.793    94686891.242    23123495.598  
  23121850.961   121506043.874    23121858.922    94680204.665    23121859.043  
 22 01 08 01 04 00.0000000  0 12G01G06G07G10G13G14G15G17G19G21G24G30
  22082355.438   116043548.926    22082364.086    90423619.397    22082363.891  
  25264104.773   132763774.577    25264112.691   103452320.511    25264113.879  
  25227712.484   132572590.937                   103303313.290    25227716.094  
  25844078.938   135811669.618    25844085.762   105827219.981    25844084.773  
  22748286.820   119543242.163    22748292.746    93150493.028                  
  20681241.141   108680558.042    20681246.793    84686311.098    20681246.750  
  23358132.109   122747727.466    23358138.723    95647708.320    23358138.387  
  20436427.734   107394193.543    20436432.793    83683837.911    20436432.691  
  21229798.555   111563383.361    21229802.254    86932555.237                  
  24335675.531   127884780.914    24335680.242    99650565.451                  
  23122893.641   121511563.335    23122902.320    94684460.984    23122902.121  
  23122507.945   121509496.331    23122516.008    94682894.896    23122516.203  
 22 01 08 01 04 01.0000000  0 12G01G06G07G10G13G14G15G17G19G21G24G30
  22082437.320   116043976.524    22082445.387    90423952.590    22082445.031  
  25263378.875   132759959.974    25263386.742   103449348.095    25263387.805  
  25228433.820   132576387.381                   103306271.569    25228438.859  
  25844282.477   135812737.410    25844289.102   105828052.016    25844288.000  
  22748826.367   119546076.138    22748831.590    93152701.334                  
  20681505.953   108681948.638    20681511.441    84687394.679    20681511.188  
  23358514.875   122749738.822    23358521.406    95649275.608    23358521.133  
  20436337.133   107393717.949    20436342.309    83683467.319    20436341.887  
  21229298.906   111560759.190    21229302.703    86930510.425                  
  24336119.945   127887115.900    24336124.152    99652384.952                  
  23122301.063   121508444.894    23122308.664    94682031.036    23122308.844  
  23123165.258   121512949.092    23123173.016    94685585.359    23123172.902  
 22 01 08 01 04 02.0000000  0 12G01G06G07G10G13G14G15G17G19G21G24G30
  22082518.000   116044404.831    22082527.156    90424286.338    22082526.859  
  25262652.656   132756145.286    25262661.039   103446375.617    25262661.738  
  25229155.867   132580183.833                   103309229.843    25229160.648  
  25844485.148   135813805.734    25844492.691   105828884.486    25844491.645  
  22749365.281   119548910.507    22749371.250    93154909.934                  
  20681770.484   108683339.591    20681776.004    84688478.537    20681775.836  
  23358897.852   122751750.599    23358904.078    95650843.218    23358903.988  
  20436246.625   107393242.868    20436252.098    83683097.123    20436251.773  
  21228799.695   111558135.471    21228803.559    86928465.969                  
  24336564.063   127889451.220    24336568.559    99654204.706                  
  23121707.445   121505326.771    23121715.547    94679601.327    23121715.469  
  23123821.805   121516402.137    23123829.820    94688276.038    23123829.789  
 22 01 08 01 04 03.0000000  0 12G01G06G07G10G13G14G15G17G19G21G24G30
  22082600.203   116044833.898    22082608.813    90424620.678    22082608.465  
  25261927.039   132752330.521    25261935.113   103443403.076    25261935.695  
  25229878.383   132583980.420                   103312188.233    25229883.559  
  25844687.781   135814874.655    25844696.102   105829717.417    25844695.000  
  22749904.594   119551745.267    22749910.258    93157118.845                  
  20682035.523   108684730.899    20682041.000    84689562.679    20682041.086  
  23359280.648   122753762.927    23359287.113    95652411.267    23359287.098  
  20436156.500   107392768.349    20436161.672    83682727.372    20436161.363  
  21228300.148   111555512.191    21228304.520    86926421.857                  
  24337008.188   127891786.985    24337013.105    99656024.771                  
  23121113.703   121502208.946    23121122.297    94677171.856    23121122.234  
  23124479.102   121519855.372    23124486.738    94690966.871    23124486.977  
 22 01 08 01 04 04.0000000  0 12G01G06G07G10G13G14G15G17G19G21G24G30
  22082682.094   116045263.741    22082690.652    90424955.616    22082690.430  
  25261201.383   132748515.672    25261209.270   103440430.463    25261210.488  
  25230601.195   132587776.983                   103315146.581    25230606.066  
  25844892.828   135815944.036    25844899.953   105830550.701    25844899.082  
  22750443.555   119554580.418    22750450.109    93159328.064                  
  20682300.242   108686122.629    20682305.574    84690647.146    20682305.512  
  23359663.719   122755775.761    23359669.746    95653979.710    23359669.672  
  20436066.430   107392294.380    20436071.410    83682358.045    20436071.270  
  21227801.750   111552889.406    21227805.148    86924378.131                  
  24337452.750   127894123.141    24337457.543    99657845.138                  
  23120520.219   121499091.453    23120528.598    94674742.632    23120528.625  
  23125135.867   121523308.895    23125144.098    94693657.930    23125144.336  
 22 01 08 01 04 05.0000000  0 12G01G06G07G10G13G14G15G17G19G21G24G30
  22082763.828   116045694.349    22082772.320    90425291.154    22082771.785  
  25260475.016   132744700.754    25260483.152   103437457.801    25260484.184  
  25231324.539   132591573.676                   103318105.040    25231328.289  
  25845096.469   135817014.028    25845103.688   105831384.465    25845102.699  
  22750983.281   119557415.966    22750989.906    93161537.576                  
  20682565.039   108687514.747    20682570.496    84691731.911    20682570.441  
  23360046.594   122757789.075    23360053.566    95655548.524    23360053.250  
  20435976.055   107391820.964    20435981.051    83681989.145    20435980.828  
  21227302.211   111550267.106    21227305.957    86922334.785                  
  24337897.297   127896459.784    24337901.988    99659665.893                  
  23119927.273   121495974.314    23119935.789    94672313.690    23119935.723  
  23125792.953   121526762.714    23125801.199    94696349.215    23125801.781  
 22 01 08 01 04 06.0000000  0 12G01G06G07G10G13G14G15G17G19G21G24G30
  22082846.063   116046125.715    22082855.020    90425627.285    22082854.727  
  25259749.469   132740885.851    25259757.285   103434485.146    25259758.211  
  25232047.156   132595370.357                   103321063.492    25232050.902  
  25845300.211   135818084.546    25845307.191   105832218.640    25845306.090  
  22751523.336   119560251.974    22751529.598    93163747.449                  
  20682829.945   108688907.250    20682835.559    84692816.978    20682835.270  
  23360430.141   122759802.912    23360436.324    95657117.753    23360436.090  
  20435886.063   107391348.094    20435891.344    83681620.677    20435891.105  
  21226803.242   111547645.265    21226807.242    86920291.792                  
  24338341.508   127898796.825    24338346.934    99661486.954                  
  23119333.664   121492857.508    23119342.422    94669885.009    23119342.273  
  23126450.281   121530216.787    23126458.844    94699040.702    23126459.078  
 22 01 08 01 04 07.0000000  0 12G01G06G07G10G13G14G15G17G19G21G24G30
  22082928.117   116046557.854    22082937.027    90425964.015    22082936.879  
  25259023.844   132737070.831    25259031.563   103431512.394    25259032.445  
  25232769.391   132599167.151                   103324022.026    25232773.250  
  25845503.156   135819155.636    25845511.125   105833053.264    25845510.371  
  22752063.188   119563088.347    22752069.309    93165957.600                  
  20683094.789   108690300.143    20683100.777    84693902.351    20683100.516  
  23360813.234   122761817.278    23360819.871    95658687.389    23360819.512  
  20435796.344   107390875.803    20435801.445    83681252.659    20435801.305  
  21226304.805   111545023.899    21226308.469    86918249.166                  
  24338786.344   127901134.273    24338791.953    99663308.340                  
  23118740.094   121489741.052    23118748.969    94667456.607    23118749.109  
  23127107.703   121533671.146    23127115.867    94701732.402    23127116.238  
 22 01 08 01 04 08.0000000  0 12G01G06G07G10G13G14G15G17G19G21G24G30
  22083010.719   116046990.699    22083019.457    90426301.298    22083019.090  
  25258297.508   132733255.758    25258305.461   103428539.609    25258306.359  
  25233491.680                                                                  
  25845707.555   135820227.230    25845714.879   105833888.264    25845714.363  
  22752602.742   119565925.095    22752608.750    93168168.050                  
  20683360.234   108691693.374    20683365.523    84694987.984    20683365.465  
  23361197.422   122763832.082    23361203.246    95660257.365    23361202.840  
  20435706.766   107390404.020    20435711.563    83680885.034    20435711.039  
  21225805.656   111542402.987    21225810.004    86916206.903                  
  24339232.180   127903472.141    24339236.832    99665130.058                  
  23118147.734   121486624.878    23118156.258    94665028.421    23118156.234  
  23127765.164   121537125.725    23127773.613    94704424.279    23127774.031  
 22 01 08 01 04 09.0000000  0 12G01G06G07G10G13G14G15G17G19G21G24G30
  22083093.000   116047424.368    22083101.969    90426639.222    22083101.582  
  25257571.211   132729440.621    25257579.379   103425566.777    25257580.500  
  25234213.023                                                                  
  25845910.922   135821299.390    25845919.055   105834723.714    25845918.828  
  22753142.711   119568762.308    22753148.477    93170378.859                  
  20683625.289   108693087.035    20683631.434    84696073.953    20683631.219  
  23361580.727   122765847.422    23361586.793    95661827.759    23361586.582  
  20435617.039   107389932.815    20435622.137    83680517.865    20435621.926  
  21225307.180   111539782.565    21225311.066    86914165.014                  
  24339676.531   127905810.416    24339681.383    99666952.103                  
  23117555.047   121483509.073    23117563.180    94662600.523    23117563.480  
  23128422.484   121540580.601    23128430.691    94707116.392    23128430.570  
 22 01 08 01 04 10.0000000  0 12G01G06G07G10G13G14G15G17G19G21G24G30
  22083175.828   116047858.746    22083184.344    90426977.699    22083184.074  
  25256845.258   132725625.362    25256853.379   103422593.844    25256854.629  
  25234934.648   132610557.7781                  103332897.8591   25234940.730  
  25846115.781   135822372.055    25846122.973   105835559.563    25846122.922  
  22753682.828   119571599.849    22753688.531    93172589.933                  
  20683890.570   108694481.035    20683896.371    84697160.187    20683896.098  
  23361963.461   122767863.245    23361970.328    95663398.538    23361970.195  
  20435527.008   107389462.116    20435532.223    83680151.087    20435532.043  
  21224809.172   111537162.581    21224812.398    86912123.465                  
  24340122.227   127908149.057    24340126.508    99668774.424                  
  23116962.188   121480393.581    23116970.129    94660172.870    23116970.309  
  23129079.969   121544035.682    23129088.137    94709808.667    23129088.301  
 22 01 08 01 04 11.0000000  0 12G01G06G07G10G13G14G15G17G19G21G24G30
  22083258.852   116048293.904    22083266.906    90427316.786    22083266.695  
  25256118.883   132721810.045    25256127.004   103419620.873    25256127.813  
  25235658.047                                                                  
  25846320.352   135823445.333    25846327.113   105836395.893    25846327.297  
  22754222.414   119574437.838    22754228.359    93174801.357                  
  20684155.734   108695875.436    20684161.695    84698246.732    20684161.570  
  23362347.688   122769879.602    23362353.816    95664969.725    23362353.926  
  20435438.102   107388991.995    20435443.457    83679784.755    20435443.195  
  21224310.742   111534543.086    21224314.215    86910082.301                  
  24340567.500   127910488.191    24340571.766    99670597.109                  
  23116369.000   121477278.380    23116377.324    94657745.441    23116377.719  
  23129738.094   121547491.058    23129745.781    94712501.166    23129745.836  
 22 01 08 01 04 12.0000000  0 12G01G06G07G10G13G14G15G17G19G21G24G30
  22083341.250   116048729.798    22083350.406    90427656.441    22083349.723  
  25255393.156   132717994.725    25255401.383   103416647.899    25255402.113  
  25236379.188   132618151.9011                  103338815.3271   25236385.680  
  25846523.672   135824519.113    25846531.906   105837232.626    25846531.566  
  22754763.188   119577276.192    22754768.496    93177013.073                  
  20684421.555   108697270.218    20684426.844    84699333.575    20684426.660  
  23362731.141   122771896.440    23362737.723    95666541.293    23362737.668  
  20435348.664   107388522.418    20435353.539    83679418.854    20435353.328  
  21223811.969   111531924.075    21223815.754    86908041.516                  
  24341013.125   127912827.707    24341017.031    99672420.107                  
  23115776.211   121474163.595    23115784.680    94655318.339    23115785.117  
  23130395.523   121550946.716    23130403.336    94715193.885    23130403.258  
 22 01 08 01 04 13.0000000  0 12G01G06G07G10G13G14G15G17G19G21G24G30
  22083424.602   116049166.524    22083433.418    90427996.755    22083432.746  
  25254667.492   132714179.309    25254675.191   103413674.843    25254675.598  
  25237103.484   132621949.057                   103341774.139    25237108.219  
  25846728.445   135825593.498    25846736.465   105838069.812    25846736.008  
  22755303.141   119580114.990    22755308.672    93179225.120                  
  20684686.414   108698665.412    20684692.191    84700420.738    20684692.082  
  23363115.031   122773913.828    23363121.465    95668113.277    23363121.180  
  20435259.102   107388053.426    20435264.043    83679053.408    20435263.906  
  21223313.117   111529305.544    21223317.516    86906001.103                  
  24341457.922   127915167.689    24341462.133    99674243.468                  
  23115184.148   121471049.116    23115192.152    94652891.475    23115192.555  
  23131052.789   121554402.640    23131060.754    94717886.811    23131060.832  
 22 01 08 01 04 14.0000000  0 12G01G06G07G10G13G14G15G17G19G21G24G30
  22083508.344   116049603.920    22083516.258    90428337.579    22083515.992  
  25253941.438   132710363.818    25253948.977   103410701.723    25253949.543  
  25237825.391   132625746.132                   103344732.895    25237831.063  
  25846933.117   135826668.341    25846940.602   105838907.348    25846940.145  
  22755843.805   119582954.124    22755849.031    93181437.424                  
  20684952.414   108700060.948    20684958.148    84701508.171    20684958.082  
  23363499.445   122775931.654    23363505.418    95669685.612    23363505.434  
  20435169.836   107387584.902    20435175.090    83678688.322    20435175.234  
  21222815.414   111526687.417    21222819.336    86903961.007                  
  24341902.867   127917508.015    24341907.258    99676067.090                  
  23114591.563   121467934.942    23114599.977    94650464.847    23114600.359  
  23131710.289   121557858.776    23131718.781    94720579.904    23131719.074  
 22 01 08 01 04 15.0000000  0 12G01G06G07G10G13G14G15G17G19G21G24G30
  22083591.648   116050042.089    22083599.859    90428679.013    22083599.727  
  25253215.672   132706548.291    25253222.848   103407728.576    25253223.418  
  25238547.570   132629543.384                   103347691.801    25238553.594  
  25847137.680   135827743.722    25847145.484   105839745.300    25847145.027  
  22756383.875   119585793.698    22756389.809    93183650.071                  
  20685217.703   108701456.842    20685223.461    84702595.881    20685223.316  
  23363883.602   122777949.980    23363889.344    95671258.335    23363889.445  
  20435081.055   107387116.946    20435086.074    83678323.676    20435085.805  
  21222317.383   111524069.809    21222321.371    86901921.312                  
  24342348.469   127919848.742    24342353.184    99677891.046                  
  23113999.234   121464821.099    23114007.145    94648038.471    23114007.277  
  23132368.484   121561315.176    23132376.402    94723273.203    23132376.383  
 22 01 08 01 04 16.0000000  0 12G01G06G07G10G13G14G15G17G19G21G24G30
  22083674.328   116050481.044    22083683.266    90429021.052    22083682.844  
  25252490.078   132702732.634    25252497.148   103404755.327    25252498.090  
  25239271.117   132633340.719                   103350650.749    25239275.910  
  25847343.047   135828819.750    25847350.145   105840583.762    25847349.980  
  22756924.398   119588633.647    22756929.883    93185863.021                  
  20685483.719   108702853.171    20685489.484    84703683.927    20685489.512  
  23364268.094   122779968.848    23364273.809    95672831.473    23364273.820  
  20434992.063   107386649.570    20434997.148    83677959.492    20434997.125  
  21221818.891   111521452.651    21221822.992    86899881.970                  
  24342794.258   127922189.961    24342798.250    99679715.366                  
  23113405.836   121461707.610    23113414.242    94645612.377    23113414.652  
  23133026.039   121564771.846    23133034.293    94725966.712    23133033.984  
 22 01 08 01 04 17.0000000  0 12G01G06G07G10G13G14G15G17G19G21G24G30
  22083758.234   116050920.749    22083767.113    90429363.684    22083766.578  
  25251763.383   132698916.964    25251770.895   103401782.081    25251771.953  
  25239993.430   132637138.057                   103353609.708    25239998.574  
  25847547.875   135829896.246    25847554.996   105841422.597    25847555.063  
  22757464.875   119591474.025    22757470.531    93188076.303                  
  20685749.266   108704249.853    20685755.152    84704772.254    20685755.242  
  23364651.695   122781988.176    23364658.055    95674404.978    23364658.180  
  20434903.023   107386182.715    20434908.066    83677595.709    20434907.918  
  21221321.344   111518835.973    21221325.254    86897843.005                  
  24343240.289   127924531.602    24343243.820    99681540.037                  
  23112813.922   121458594.467    23112822.254    94643186.559    23112822.230  
  23133684.188   121568228.809    23133691.727    94728660.445    23133691.598  
 22 01 08 01 04 18.0000000  0 12G01G06G07G10G13G14G15G17G19G21G24G30
  22083841.898   116051361.251    22083851.098    90429706.930    22083850.480  
  25251036.336   132695101.209    25251044.754   103398808.772    25251045.586  
  25240715.906   132640935.491                   103356568.746    25240720.934  
  25847751.469   135830973.329    25847759.582   105842261.890    25847759.477  
  22758005.609   119594314.796    22758010.750    93190289.886                  
  20686015.633   108705646.938    20686021.090    84705860.886    20686020.887  
  23365035.883   122784008.027    23365042.023    95675978.884    23365042.371  
  20434814.758   107385716.432    20434819.664    83677232.372    20434819.902  
  21220823.383   111516219.772    21220827.297    86895804.405                  
  24343685.125   127926873.579    24343689.695    99683364.982                  
  23112221.703   121455481.616    23112229.949    94640760.958    23112229.949  
  23134342.500   121571686.008    23134349.797    94731354.366    23134350.223  
 22 01 08 01 04 19.0000000  0 12G01G06G07G10G13G14G15G17G19G21G24G30
  22083926.047   116051802.436    22083935.219    90430050.705    22083934.539  
  25250310.133   132691285.370    25250318.688   103395835.404    25250319.613  
  25241438.477   132644733.029                   103359527.876    25241444.031  
  25847957.461   135832050.854    25847964.949   105843101.531    25847964.844  
  22758546.453   119597155.931    22758551.602    93192503.742                  
  20686281.406   108707044.374    20686287.105    84706949.798    20686287.023  
  23365420.570   122786028.371    23365426.789    95677553.180    23365426.910  
  20434725.969   107385250.666    20434730.906    83676869.435    20434730.672  
  21220325.836   111513603.998    21220329.602    86893766.138                  
  24344131.156   127929216.012    24344135.375    99685190.257                  
  23111629.680   121452369.113    23111637.387    94638335.626    23111637.426  
  23134999.938   121575143.461    23135007.777    94734048.487    23135008.172  
 22 01 08 01 04 20.0000000  0 12G01G06G07G10G13G14G15G17G19G21G24G30
  22084010.125   116052244.394    22084019.180    90430395.088    22084018.605  
  25249584.789   132687469.459    25249592.277   103392861.973    25249592.977  
  25242160.930   132648530.503                   103362486.950    25242166.602  
  25848162.352   135833128.991    25848169.934   105843941.643    25848169.883  
  22759086.852   119599997.481    22759092.129    93194717.942                  
  20686547.336   108708442.218    20686553.027    84708039.030    20686552.781  
  23365804.992   122788049.217    23365811.465    95679127.870    23365811.465  
  20434637.664   107384785.442    20434642.398    83676506.923    20434642.230  
  21219828.117   111510988.722    21219832.039    86891728.257                  
  24344577.406   127931558.834    24344581.027    99687015.814                  
  23111036.844   121449256.952    23111045.266    94635910.565    23111045.543  
  23135658.039   121578601.208    23135665.680    94736742.838    23135666.504  
 22 01 08 01 04 21.0000000  0 12G01G06G07G10G13G14G15G17G19G21G24G30
  22084094.117   116052687.094    22084103.293    90430740.047    22084102.836  
  25248858.195   132683653.461    25248866.508   103389888.478    25248867.035  
  25242883.953   132652328.072                   103365446.087    25242889.098  
  25848367.297   135834207.673    25848375.516   105844782.178    25848375.352  
  22759627.563   119602839.406    22759633.258    93196932.437                  
  20686813.828   108709840.412    20686819.297    84709128.536    20686818.980  
  23366189.563   122790070.540    23366196.195    95680702.926    23366196.488  
  20434548.953   107384320.766    20434554.137    83676144.840    20434553.977  
  21219330.281   111508373.906    21219334.313    86889690.746                  
  24345023.602   127933902.032    24345027.059    99688841.660                  
  23110444.500   121446145.063    23110453.020    94633485.719    23110453.383  
  23136315.773   121582059.134    23136323.734    94739437.325    23136324.438  
 22 01 08 01 04 22.0000000  0 12G01G06G07G10G13G14G15G17G19G21G24G30
  22084178.891   116053130.625    22084187.844    90431085.658    22084187.527  
  25248132.563   132679837.490    25248140.008   103386914.999    25248140.965  
  25243606.852   132656125.762                   103368405.336    25243611.996  
  25848572.445   135835286.884    25848580.527   105845623.120    25848580.188  
  22760168.289   119605681.756    22760174.137    93199147.259                  
  20687079.422   108711239.021    20687085.250    84710218.359    20687085.051  
  23366574.461   122792092.399    23366580.887    95682278.400    23366580.867  
  20434460.594   107383856.673    20434465.613    83675783.208    20434465.598  
  21218832.742   111505759.580    21218836.723    86887653.604                  
  24345469.070   127936245.733    24345473.207    99690667.926                  
  23109852.766   121443033.606    23109860.453    94631061.211    23109860.969  
  23136974.023   121585517.400    23136981.742    94742132.081    23136982.398  
 22 01 08 01 04 23.0000000  0 12G01G06G07G10G13G14G15G17G19G21G24G30
  22084263.172   116053574.890    22084272.180    90431431.841    22084271.730  
  25247405.641   132676021.391    25247413.781   103383941.426    25247414.840  
  25244330.367   132659923.441                   103371364.567    25244334.570  
  25848777.883   135836366.665    25848785.988   105846464.515    25848785.707  
  22760709.148   119608524.548    22760714.996    93201362.430                  
  20687345.719   108712638.042    20687351.617    84711308.503    20687351.180  
  23366959.047   122794114.781    23366965.633    95683854.279    23366965.789  
  20434372.711   107383393.130    20434377.434    83675422.010    20434377.070  
  21218335.656   111503145.741    21218339.234    86885616.844                  
  24345914.516   127938589.862    24345919.176    99692494.527                  
  23109260.430   121439922.401    23109268.734    94628636.902    23109269.063  
  23137631.852   121588975.925    23137639.949    94744827.029    23137640.504  
 22 01 08 01 04 24.0000000  0 12G01G06G07G10G13G14G15G17G19G21G24G30
  22084348.102   116054019.978    22084356.715    90431778.664    22084356.352  
  25246680.172   132672205.328    25246687.574   103380967.870    25246688.922  
  25245053.102   132663721.338                   103374323.959    25245057.305  
  25848985.063   135837447.078    25848991.949   105847306.402    25848991.668  
  22761250.039   119611367.772    22761256.352    93203577.930                  
  20687612.234   108714037.471    20687617.707    84712398.971    20687617.703  
  23367344.430   122796137.694    23367350.313    95685430.569    23367350.527  
  20434284.414   107382930.199    20434289.297    83675061.284    20434289.324  
  21217838.148   111500532.421    21217841.516    86883580.497                  
  24346360.375   127940934.446    24346365.535    99694321.469                  
  23108668.914   121436811.656    23108676.957    94626212.949    23108677.328  
  23138290.438   121592434.776    23138298.203    94747522.232    23138298.492  
 22 01 08 01 04 25.0000000  0 12G01G06G07G10G13G14G15G17G19G21G24G30
  22084432.977   116054465.807    22084441.891    90432126.063    22084441.297  
  25245953.281   132668389.184    25245961.066   103377994.257    25245962.473  
  25245775.680   132667519.191                   103377283.332    25245779.180  
  25849190.281   135838528.054    25849197.504   105848148.730    25849197.336  
  22761791.039   119614211.387    22761797.016    93205793.728                  
  20687878.688   108715437.290    20687884.063    84713489.739    20687883.957  
  23367729.508   122798161.123    23367735.398    95687007.265    23367735.723  
  20434195.844   107382467.799    20434201.113    83674700.970    20434201.004  
  21217341.477   111497919.559    21217344.848    86881544.503                  
  24346806.563   127943279.450    24346811.613    99696148.749                  
  23108076.789   121433701.263    23108085.227    94623789.267    23108085.254  
  23138948.414   121595893.884    23138956.602    94750217.640    23138956.840  
 22 01 08 01 04 26.0000000  0 12G01G06G07G10G13G14G15G17G19G21G24G30
  22084517.875   116054912.356    22084526.602    90432474.024    22084526.180  
  25245226.875   132664572.897    25245234.711   103375020.536    25245236.160  
  25246498.297   132671317.151                   103380242.783    25246502.914  
  25849396.156   135839609.459    25849403.629   105848991.385    25849402.992  
  22762333.109   119617055.320    22762338.598    93208009.781                  
  20688144.656   108716837.421    20688150.656    84714580.749    20688150.379  
  23368114.336   122800184.969    23368120.609    95688584.287    23368120.578  
  20434108.625   107382005.903    20434113.598    83674341.054    20434113.285  
  21216843.789   111495307.125    21216847.715    86879508.844                  
  24347253.422   127945624.807    24347258.352    99697976.293                  
  23107484.508   121430591.091    23107493.316    94621365.754    23107493.449  
  23139606.875   121599353.173    23139614.789    94752913.184    23139614.891  
 22 01 08 01 04 27.0000000  0 12G01G06G07G10G13G14G15G17G19G21G24G30
  22084603.516   116055359.660    22084611.996    90432822.577    22084611.660  
  25244500.953   132660756.561    25244508.945   103372046.777    25244510.453  
  25247222.180   132675115.075                   103383202.204    25247225.621  
  25849601.523   135840691.412    25849609.551   105849834.452    25849608.797  
  22762873.859   119619899.706    22762879.289    93210226.185                  
  20688411.086   108718237.948    20688416.961    84715672.068    20688416.484  
  23368499.359   122802209.343    23368506.324    95690161.723    23368506.156  
  20434020.516   107381544.561    20434025.848    83673981.567    20434025.566  
  21216346.719   111492695.165    21216350.656    86877473.544                  
  24347699.359   127947970.512    24347704.543    99699804.107                  
  23106892.672   121427481.239    23106901.250    94618942.494    23106901.637  
  23140265.430   121602812.739    23140272.836    94755608.953    23140273.063  
 22 01 08 01 04 28.0000000  0 12G01G06G07G10G13G14G15G17G19G21G24G30
  22084688.031   116055807.719    22084696.910    90433171.713    22084696.648  
  25243774.219   132656940.167    25243782.582   103369072.966    25243783.785  
  25247943.805   132678913.083                   103386161.673    25247948.480  
  25849808.156   135841773.919    25849815.211   105850677.942    25849814.695  
  22763415.195   119622744.472    22763421.234    93212442.876                  
  20688678.430   108719638.880    20688683.984    84716763.701    20688683.539  
  23368885.148   122804234.222    23368891.457    95691739.553    23368891.785  
  20433933.094   107381083.780    20433937.750    83673622.514    20433937.738  
  21215849.430   111490083.677    21215853.684    86875438.623                  
  24348146.180   127950316.759    24348150.449    99701632.349                  
  23106301.227   121424371.774    23106309.891    94616519.533    23106310.117  
  23140923.805   121606272.569    23140931.578    94758304.923    23140931.938  
 22 01 08 01 04 29.0000000  0 12G01G06G07G10G13G14G15G17G19G21G24G30
  22084774.156   116056256.548    22084782.449    90433521.452    22084781.848  
  25243047.828   132653123.736    25243056.121   103366099.119    25243057.742  
  25248666.297                                                                  
  25850013.648   135842856.953    25850021.293   105851521.868    25850020.773  
  22763955.969   119625589.652    22763962.656    93214659.897                  
  20688944.539   108721040.178    20688950.375    84717855.625    20688950.039  
  23369270.516   122806259.618    23369276.934    95693317.780    23369276.746  
  20433845.164   107380623.542    20433850.375    83673263.892    20433850.145  
  21215352.641   111487472.664    21215356.902    86873404.067                  
  24348592.461   127952663.319    24348597.199    99703460.828                  
  23105710.055   121421262.658    23105717.836    94614096.848    23105718.281  
  23141582.094   121609732.674    23141590.523    94761001.110    23141590.516  
 22 01 08 01 04 30.0000000  0 12G01G06G07G10G13G14G15G17G19G21G24G30
  22084859.539   116056706.174    22084867.844    90433871.809    22084867.270  
  25242322.125   132649307.265    25242330.031   103363125.250    25242331.746  
  25249389.297                                                                  
  25850219.820   135843940.647    25850227.699   105852366.298    25850226.594  
  22764498.016   119628435.254    22764503.918    93216877.251                  
  20689211.344   108722441.904    20689217.258    84718947.879    20689216.988  
  23369656.219   122808285.562    23369662.527    95694896.438    23369662.043  
  20433757.828   107380163.900    20433762.977    83672905.728    20433762.742  
  21214856.055   111484862.164    21214859.664    86871369.909                  
  24349039.961   127955010.399    24349043.727    99705289.751                  
  23105117.914   121418153.844    23105126.563    94611674.390    23105126.816  
  23142240.547   121613193.093    23142248.770    94763697.545    23142248.598  
 22 01 08 01 04 31.0000000  0 12G01G06G07G10G13G14G15G17G19G21G24G30
  22084945.328   116057156.549    22084953.707    90434222.755    22084953.234  
  25241596.281   132645490.706    25241603.758   103360151.312    25241605.211  
  25250111.375   132690307.6601                  103395040.5441   25250116.461  
  25850427.008   135845024.769    25850433.883   105853211.072    25850432.602  
  22765039.367   119631281.203    22765045.465    93219094.882                  
  20689477.914   108723843.981    20689483.402    84720040.403    20689483.309  
  23370041.422   122810311.938    23370048.031    95696475.429    23370047.691  
  20433670.344   107379704.762    20433675.734    83672547.959    20433675.512  
  21214359.516   111482252.089    21214363.793    86869336.087                  
  24349486.461   127957357.855    24349490.289    99707118.934                  
  23104525.750   121415045.405    23104535.508    94609252.235    23104535.613  
  23142899.203   121616653.680    23142907.348    94766394.105    23142907.152  
 22 01 08 01 04 32.0000000  0 12G01G06G07G10G13G14G15G17G19G21G24G30
  22085031.141   116057607.655    22085039.555    90434574.266    22085039.242  
  25240869.219   132641674.047    25240877.605   103357177.288    25240879.316  
  25250833.578   132694105.918                   103398000.220    25250839.074  
  25850633.492   135846109.448    25850640.402   105854056.272    25850639.242  
  22765581.414   119634127.547    22765586.809    93221312.813                  
  20689744.828   108725246.433    20689750.559    84721133.221    20689750.273  
  23370426.992   122812338.824    23370434.098    95698054.823    23370433.605  
  20433583.273   107379246.157    20433588.574    83672190.604    20433588.215  
  21213863.336   111479642.486    21213866.621    86867302.633                  
  24349933.258   127959705.677    24349936.922    99708948.416                  
  23103934.695   121411937.264    23103943.914    94606830.314    23103944.133  
  23143557.570   121620114.568    23143566.063    94769090.899    23143565.824  
 22 01 08 01 04 33.0000000  0 12G01G06G07G10G13G14G15G17G19G21G24G30
  22085116.797   116058059.504    22085125.531    90434926.356    22085124.988  
  25240143.703   132637857.375    25240150.645   103354203.257    25240151.895  
  25251557.172   132697904.229                   103400959.951    25251562.609  
  25850840.094   135847194.696    25850846.730   105854901.914    25850845.215  
  22766122.898   119636974.309    22766128.484    93223531.069                  
  20690011.578   108726649.255    20690017.828    84722226.334    20690017.648  
  23370813.297   122814366.191    23370819.738    95699634.589    23370819.609  
  20433496.172   107378788.101    20433501.246    83671833.671    20433501.172  
  21213366.289   111477033.355    21213370.785    86865269.542                  
  24350379.984   127962053.920    24350383.820    99710778.212                  
  23103343.547   121408829.414    23103352.480    94604408.613    23103352.031  
  23144216.516   121623575.694    23144224.309    94771787.882    23144224.141  
 22 01 08 01 04 34.0000000  0 12G01G06G07G10G13G14G15G17G19G21G24G30
  22085203.234   116058512.126    22085211.398    90435279.046    22085210.906  
  25239417.203   132634040.608    25239424.539   103351229.151    25239425.570  
  25252279.195   132701702.645                   103403919.760    25252284.750  
  25851046.102   135848280.497    25851053.500   105855747.977    25851052.395  
  22766665.039   119639821.501    22766670.559    93225749.651                  
  20690278.602   108728052.470    20690284.531    84723319.747    20690284.324  
  23371199.086   122816394.092    23371205.102    95701214.764    23371204.832  
  20433408.672   107378330.630    20433413.898    83671477.202    20433413.773  
  21212870.000   111474424.701    21212873.977    86863236.826                  
  24350826.906   127964402.617    24350830.934    99712608.342                  
  23102752.977   121405721.965    23102761.059    94601987.224    23102761.031  
  23144875.266   121627037.098    23144883.254    94774485.082    23144883.410  
 22 01 08 01 04 35.0000000  0 12G01G06G07G10G13G14G15G17G19G21G24G30
  22085288.969   116058965.539    22085297.988    90435632.355    22085297.590  
  25238691.648   132630223.836    25238698.254   103348255.042    25238699.586  
  25253002.539                                                                  
  25851253.703   135849366.893    25851260.109   105856594.503    25851259.242  
  22767206.680   119642669.042    22767212.125    93227968.508                  
  20690545.852   108729456.085    20690551.645    84724413.470    20690551.426  
  23371585.094   122818422.510    23371591.473    95702795.349    23371591.137  
  20433321.922   107377873.702    20433327.258    83671121.154    20433327.164  
  21212373.430   111471816.520    21212377.629    86861204.479                  
  24351274.539   127966751.750    24351277.973    99714438.819                  
  23102161.242   121402614.854    23102169.668    94599566.103    23102169.531  
  23145533.414   121630498.786    23145542.223    94777182.498    23145542.273  
 22 01 08 01 04 36.0000000  0 12G01G06G07G10G13G14G15G17G19G21G24G30
  22085375.234   116059419.669    22085384.320    90435986.221    22085384.023  
  25237965.867   132626406.946    25237971.922   103345280.832    25237973.145  
  25253724.664                                                                  
  25851459.219   135850453.704    25851467.164   105857441.367    25851466.180  
  22767749.008   119645517.011    22767754.148    93230187.715                  
  20690813.078   108730860.059    20690818.773    84725507.477    20690818.480  
  23371970.883   122820451.403    23371977.793    95704376.300    23371977.648  
  20433235.273   107377417.312    20433239.918    83670765.532    20433240.082  
  21211877.359   111469208.812    21211881.457    86859172.498                  
  24351721.055   127969101.216    24351724.816    99716269.587                  
  23101570.109   121399508.049    23101578.301    94597145.214    23101577.984  
  23146192.203   121633960.732    23146200.539    94779880.120    23146200.707  
 22 01 08 01 04 37.0000000  0 12G01G06G07G10G13G14G15G17G19G21G24G30
  22085461.836   116059874.557    22085470.141    90436340.679    22085469.898  
  25237238.398   132622589.935    25237245.527   103342306.528    25237246.781  
  25254445.930   132713098.1511                  103412799.4011   25254454.121  
  25851666.148   135851541.066    25851674.105   105858288.672    25851672.883  
  22768290.625   119648365.335    22768296.289    93232407.181                  
  20691080.008   108732264.387    20691086.199    84726601.758    20691085.887  
  23372356.727   122822480.729    23372364.008    95705957.592    23372363.770  
  20433148.453   107376961.424    20433153.832    83670410.289    20433153.707  
  21211381.609   111466601.530    21211385.387    86857140.850                  
  24352168.109   127971451.131    24352171.992    99718100.697                  
  23100978.836   121396401.537    23100987.414    94594724.553    23100986.973  
  23146851.609   121637422.854    23146859.289    94782577.874    23146859.512  
 22 01 08 01 04 38.0000000  0 12G01G06G07G10G13G14G15G17G19G21G24G30
  22085549.141   116060330.224    22085557.680    90436695.742    22085557.422  
  25236512.109   132618772.944    25236519.020   103339332.244    25236520.191  
  25255169.992                                                                  
  25851873.320   135852629.038    25851880.188   105859136.452    25851879.320  
  22768833.008   119651214.118    22768838.668    93234627.016                  
  20691347.313   108733669.162    20691353.273    84727696.390    20691353.004  
  23372743.477   122824510.669    23372750.043    95707539.358    23372749.879  
  20433062.078   107376506.141    20433066.996    83670055.529    20433066.688  
  21210885.117   111463994.772    21210889.180    86855109.613                  
  24352614.828   127973801.509    24352619.406    99719932.194                  
  23100387.828   121393295.402    23100396.641    94592304.193    23100395.793  
  23147509.617   121640885.316    23147518.066    94785275.892    23147518.297  
 22 01 08 01 04 39.0000000  0 12G01G06G07G10G13G14G15G17G19G21G24G30
  22085635.211   116060786.620    22085644.090    90437051.373    22085643.867  
  25235786.445   132614955.826    25235793.074   103336357.861    25235794.461  
  25255893.625   132720695.4521                  103418719.3771   25255900.234  
  25852081.406   135853717.482    25852088.039   105859984.617    25852087.461  
  22769375.383   119654063.245    22769380.785    93236847.102                  
  20691614.797   108735074.238    20691620.906    84728791.253    20691620.770  
  23373130.258   122826541.012    23373136.887    95709121.446    23373136.664  
  20432975.297   107376051.381    20432980.699    83669701.167    20432980.133  
  21210389.320   111461388.454    21210393.934    86853078.721                  
  24353062.406   127976152.221    24353067.027    99721763.915                  
  23099796.242   121390189.591    23099805.258    94589884.085    23099804.680  
  23148169.805   121644347.985    23148177.336    94787974.081    23148177.270  
 22 01 08 01 04 40.0000000  0 12G01G06G07G10G13G14G15G17G19G21G24G30
  22085722.594   116061243.813    22085731.344    90437407.631    22085731.000  
  25235059.594   132611138.704    25235066.641   103333383.481    25235067.949  
  25256617.328                                                                  
  25852287.273   135854806.553    25852295.059   105860833.250    25852294.656  
  22769917.000   119656912.773    22769922.957    93239067.508                  
  20691882.484   108736479.738    20691888.902    84729886.452    20691888.289  
  23373516.523   122828571.886    23373522.828    95710703.950    23373522.977  
  20432888.852   107375597.158    20432894.309    83669347.228    20432894.020  
  21209893.711   111458782.600    21209897.492    86851048.183                  
  24353510.164   127978503.368    24353514.184    99723595.984                  
  23099206.203   121387084.144    23099214.605    94587464.254    23099214.336  
  23148828.211   121647810.948    23148836.023    94790672.487    23148836.473  
 22 01 08 01 04 41.0000000  0 12G01G06G07G10G13G14G15G17G19G21G24G30
  22085810.023   116061701.742    22085818.461    90437764.461    22085817.797  
  25234332.906   132607321.504    25234340.238   103330409.045    25234341.500  
  25257339.656                                                                  
  25852495.898   135855896.209    25852502.477   105861682.321    25852501.727  
  22770459.742   119659762.750    22770464.723    93241288.267                  
  20692150.055   108737885.667    20692156.129    84730981.979    20692155.934  
  23373903.133   122830603.292    23373909.559    95712286.865    23373909.469  
  20432802.563   107375143.542    20432807.941    83668993.760    20432807.586  
  21209397.453   111456177.263    21209401.883    86849018.051                  
  24353957.539   127980854.963    24353962.043    99725428.398                  
  23098615.844   121383979.024    23098623.805    94585044.686    23098623.523  
  23149487.336   121651274.203    23149494.906    94793371.130    23149495.176  
 22 01 08 01 04 42.0000000  0 12G01G06G07G10G13G14G15G17G19G21G24G30
  22085897.297   116062160.449    22085905.746    90438121.893    22085905.133  
  25233606.445   132603504.246    25233613.473   103327434.559    25233614.762  
  25258061.961   132732091.8911                  103427599.6971   25258068.395  
  25852702.313   135856986.281    25852710.395   105862531.717    25852709.469  
  22771002.141   119662613.093    22771007.469    93243509.308                  
  20692417.586   108739291.934    20692423.648    84732077.772    20692423.246  
  23374290.125   122832635.164    23374295.945    95713870.142    23374296.051  
  20432716.773   107374690.433    20432721.555    83668640.690    20432721.547  
  21208901.844   111453572.381    21208905.590    86846988.272                  
  24354405.000   127983206.973    24354409.051    99727261.096                  
  23098023.820   121380874.214    23098032.758    94582625.355    23098032.383  
  23150145.875   121654737.694    23150153.977    94796069.954    23150154.055  
